$GPGGA,102408.00,3205.948085,N,03448.596175,E,1,08,0.8,2.8,M,19.2,M,,*6D
$PGLOR,5,STA,102408.00,-0.040,0.000,173,1,8,0,P,F,L,0,C,3,S,0012,0,2,R,33F4,TPeF,12,42,LC,,*58
$PGLOR,1,UNC,102408.00,0.013,8.0,3.2,0.15,180.00,5.8,5.5,-41.4*35
$PGLOR,2,SAT,3,1,G28,035,1F,G30,036,1F,R09,025,13,G05,032,1F,G07,025,1F,G13,024,1F*54
$PGLOR,2,SAT,3,2,G09,031,1F,G17,029,1F,G20,019,13,G08,013,10,G19,007,10,G11,011,10*39
$PGLOR,2,SAT,3,3,R07,033,3,R10,028,3,R08,023,3,R06,029,3,R19,030,3*4C
$PGLOR,2,SIO,TxERR,0,RxERR,0,TxCNT,355,RxCNT,4017,MLFRMPKT,0,DTMS,1000,DTIN,8,14,DTOUT,101,985,HATMD,70*1B
$PGLOR,0,HLA,102408.00,L,,Al,,A,23,H,,,M,,Ac,0,Gr,0,S,,,Sx,,,T,0,Tr,,Mn,0*08
$PGLOR,3,PWR,mA,26.9,RFTm,1000,OscTm,1000,MeasTm,1000,UTC,102408.00*35
$GPGSV,3,1,11,28,86,202,35,30,56,029,36,05,39,264,33,07,34,060,26*7A
$GPGSV,3,2,11,13,34,319,24,09,21,131,32,17,20,158,32,20,14,309,26*78
$GPGSV,3,3,11,08,10,044,13,19,00,182,17,11,00,088,13*45
$GLGSV,3,1,09,73,46,012,29,71,64,223,35,74,43,292,28,72,40,317,27*67
$GLGSV,3,2,09,70,22,174,30,83,17,095,32,82,10,042,,84,03,144,*68
$GLGSV,3,3,09,75,03,255,*5F
$GPGSA,A,3,05,07,09,13,17,20,28,30,,,,,1.4,1.1,0.9*3A
$GNGSA,A,3,05,07,09,13,17,20,28,30,,,,,1.4,1.1,0.9*24
$GNGSA,A,3,,,,,,,,,,,,,1.4,1.1,0.9*20
$QZGSA,A,3,,,,,,,,,,,,,1.4,1.1,0.9*22
$IMGSA,A,3,,,,,,,,,,,,,1.4,1.1,0.9*2D
$PGLOR,1,FIX,1.0,1.0*20
$GPRMC,102408.00,A,3205.948085,N,03448.596175,E,000.0,,050416,,,A*77
$PGLOR,SPL,20160405132405.5,POS,20160405102407.999,32.099135,34.809936,8,8,0,22,3,1.100000
$GPGGA,102409.00,3205.948085,N,03448.596175,E,1,09,0.6,2.8,M,19.2,M,,*63
$PGLOR,5,STA,102409.00,-0.040,0.000,174,1,6,0,P,F,L,0,C,3,S,0012,0,2,R,33F4,TPeF,12,43,LC,,*51
$PGLOR,1,UNC,102409.00,0.012,6.0,3.1,0.17,180.00,4.4,4.1,-54.3*31
$PGLOR,2,SAT,3,1,G28,032,1F,G30,033,1F,R09,027,13,G05,031,1F,G07,026,1F,G13,026,1F*56
$PGLOR,2,SAT,3,2,G09,030,1F,G17,028,1F,G20,019,13,G08,013,13,G19,007,10,G11,010,10*3B
$PGLOR,2,SAT,3,3,R07,034,3,R10,025,3,R08,024,3,R06,032,3,R19,031,3*4A
$PGLOR,2,SIO,TxERR,0,RxERR,0,TxCNT,307,RxCNT,3997,MLFRMPKT,0,DTMS,1002,DTIN,13,46,DTOUT,101,955,HATMD,72*2A
$PGLOR,0,HLA,102409.00,L,,Al,,A,22,H,,,M,,Ac,0,Gr,0,S,,,Sx,,,T,0,Tr,,Mn,0*08
$PGLOR,3,PWR,mA,26.9,RFTm,1000,OscTm,1000,MeasTm,1000,UTC,102409.00*34
$GPGSV,3,1,11,28,86,202,35,30,56,029,35,05,39,264,33,07,34,060,26*79
$GPGSV,3,2,11,13,34,319,26,09,21,131,32,17,20,158,32,20,14,309,26*7A
$GPGSV,3,3,11,08,10,044,13,19,00,182,16,11,00,088,13*44
$GLGSV,3,1,09,73,46,012,29,71,64,223,35,74,43,292,28,72,40,317,26*66
$GLGSV,3,2,09,70,22,174,32,83,17,095,32,82,10,042,,84,03,144,*6A
$GLGSV,3,3,09,75,03,255,*5F
$GPGSA,A,3,05,07,08,09,13,17,20,28,30,,,,1.4,1.1,0.9*32
$GNGSA,A,3,05,07,08,09,13,17,20,28,30,,,,1.4,1.1,0.9*2C
$GNGSA,A,3,,,,,,,,,,,,,1.4,1.1,0.9*20
$QZGSA,A,3,,,,,,,,,,,,,1.4,1.1,0.9*22
$IMGSA,A,3,,,,,,,,,,,,,1.4,1.1,0.9*2D
$PGLOR,1,FIX,1.0,1.0*20
$GPRMC,102409.00,A,3205.948085,N,03448.596175,E,000.0,,050416,,,A*76
$PGLOR,SPL,20160405132406.5,POS,20160405102408.999,32.099135,34.809936,6,6,0,22,3,1.100000
$GPGGA,102410.00,3205.948085,N,03448.596175,E,1,09,0.6,2.8,M,19.2,M,,*6B
$PGLOR,5,STA,102410.00,-0.040,0.000,175,1,6,0,P,F,L,0,C,3,S,0012,0,2,R,33F4,TPeF,12,44,LC,,*5F
$PGLOR,1,UNC,102410.00,0.012,6.0,3.1,0.18,180.00,4.4,4.1,-54.9*3C
$PGLOR,2,SAT,3,1,G28,032,1F,G30,033,1F,R09,028,13,G05,028,1F,G07,028,1F,G13,029,1F*50
$PGLOR,2,SAT,3,2,G09,027,1F,G17,030,1F,G20,015,13,G08,013,13,G19,007,10,G11,010,10*38
$PGLOR,2,SAT,3,3,R07,033,3,R10,027,3,R08,024,3,R06,034,3,R19,033,3*4B
$PGLOR,2,SIO,TxERR,0,RxERR,0,TxCNT,362,RxCNT,4059,MLFRMPKT,0,DTMS,1003,DTIN,40,74,DTOUT,99,928,HATMD,75*1E
$PGLOR,0,HLA,102410.00,L,,Al,,A,22,H,,,M,,Ac,0,Gr,0,S,,,Sx,,,T,0,Tr,,Mn,0*00
$PGLOR,3,PWR,mA,26.9,RFTm,1000,OscTm,1000,MeasTm,1000,UTC,102410.00*3C
$GPGSV,3,1,11,28,86,202,35,30,56,029,35,05,39,264,32,07,34,060,28*76
$GPGSV,3,2,11,13,34,319,29,09,21,131,31,17,20,158,32,20,14,309,25*75
$GPGSV,3,3,11,08,10,044,13,19,00,182,15,11,00,088,13*47
$GLGSV,3,1,09,73,46,012,29,71,64,223,35,74,43,292,28,72,40,317,26*66
$GLGSV,3,2,09,70,22,174,34,83,17,095,33,82,10,042,,84,03,144,*6D
$GLGSV,3,3,09,75,03,255,*5F
$GPGSA,A,3,05,07,08,09,13,17,20,28,30,,,,1.4,1.1,0.9*32
$GNGSA,A,3,05,07,08,09,13,17,20,28,30,,,,1.4,1.1,0.9*2C
$GNGSA,A,3,,,,,,,,,,,,,1.4,1.1,0.9*20
$QZGSA,A,3,,,,,,,,,,,,,1.4,1.1,0.9*22
$IMGSA,A,3,,,,,,,,,,,,,1.4,1.1,0.9*2D
$PGLOR,1,FIX,1.0,1.0*20
$GPRMC,102410.00,A,3205.948085,N,03448.596175,E,000.0,,050416,,,A*7E
$PGLOR,SPL,20160405132407.5,POS,20160405102409.999,32.099135,34.809936,6,6,0,22,3,1.100000
$GPGGA,102411.00,3205.948085,N,03448.596175,E,1,09,0.6,2.8,M,19.2,M,,*6A
$PGLOR,5,STA,102411.00,-0.040,0.000,176,1,6,0,P,F,L,0,C,3,S,0012,0,2,R,33F4,TPeF,12,45,LC,,*5C
$PGLOR,1,UNC,102411.00,0.012,6.0,3.0,0.17,180.00,4.4,4.1,-46.3*3A
$PGLOR,2,SAT,3,1,G28,034,1F,G30,032,1F,R09,024,13,G05,026,1F,G07,028,1F,G13,028,1F*54
$PGLOR,2,SAT,3,2,G09,027,1F,G17,034,1F,G20,020,1F,G08,013,1F,G19,007,10,G11,010,10*3A
$PGLOR,2,SAT,3,3,R07,033,3,R10,027,3,R08,025,3,R06,033,3,R19,031,3*4F
$PGLOR,2,SIO,TxERR,0,RxERR,0,TxCNT,451,RxCNT,3992,MLFRMPKT,0,DTMS,996,DTIN,25,43,DTOUT,100,951,HATMD,71*18
$PGLOR,0,HLA,102411.00,L,,Al,,A,22,H,,,M,,Ac,0,Gr,0,S,,,Sx,,,T,0,Tr,,Mn,0*01
$PGLOR,3,PWR,mA,26.9,RFTm,1000,OscTm,1000,MeasTm,1000,UTC,102411.00*3D
$GPGSV,3,1,11,28,86,202,35,30,56,029,35,05,39,264,32,07,34,060,28*76
$GPGSV,3,2,11,13,34,319,28,09,21,131,31,17,20,158,34,20,14,309,24*73
$GPGSV,3,3,11,08,10,044,13,19,00,182,14,11,00,088,12*47
$GLGSV,3,1,09,73,46,012,28,71,64,223,35,74,43,292,28,72,40,317,26*67
$GLGSV,3,2,09,70,22,174,34,83,17,095,33,82,10,042,,84,03,144,*6D
$GLGSV,3,3,09,75,03,255,*5F
$GPGSA,A,3,05,07,08,09,13,17,20,28,30,,,,1.2,0.9,0.8*3C
$GNGSA,A,3,05,07,08,09,13,17,20,28,30,,,,1.2,0.9,0.8*22
$GNGSA,A,3,,,,,,,,,,,,,1.2,0.9,0.8*2E
$QZGSA,A,3,,,,,,,,,,,,,1.2,0.9,0.8*2C
$IMGSA,A,3,,,,,,,,,,,,,1.2,0.9,0.8*23
$PGLOR,1,FIX,1.0,1.0*20
$GPRMC,102411.00,A,3205.948085,N,03448.596175,E,000.0,,050416,,,A*7F
$PGLOR,SPL,20160405132408.5,POS,20160405102410.999,32.099135,34.809936,6,6,0,22,3,1.100000
$GPGGA,102412.00,3205.948085,N,03448.596175,E,1,09,0.6,2.8,M,19.2,M,,*69
$PGLOR,5,STA,102412.00,-0.040,0.000,177,1,6,0,P,F,L,0,C,3,S,0012,0,2,R,33F4,TPeF,12,46,LC,,*5D
$PGLOR,1,UNC,102412.00,0.011,6.0,3.0,0.16,180.00,4.4,4.1,-40.1*3F
$PGLOR,2,SAT,3,1,G28,033,1F,G30,030,1F,R09,024,13,G05,030,1F,G07,026,1F,G13,027,1F*57
$PGLOR,2,SAT,3,2,G09,032,1F,G17,034,1F,G20,021,1B,G08,013,1B,G19,007,10,G11,009,10*37
$PGLOR,2,SAT,3,3,R07,034,3,R10,025,3,R08,025,3,R06,033,3,R19,027,3*4D
$PGLOR,2,SIO,TxERR,0,RxERR,0,TxCNT,309,RxCNT,4063,MLFRMPKT,0,DTMS,1000,DTIN,18,47,DTOUT,100,951,HATMD,71*2F
$PGLOR,0,HLA,102412.00,L,,Al,,A,21,H,,,M,,Ac,0,Gr,0,S,,,Sx,,,T,0,Tr,,Mn,0*01
$PGLOR,3,PWR,mA,26.9,RFTm,1000,OscTm,1000,MeasTm,1000,UTC,102412.00*3E
$GPGSV,3,1,11,28,86,202,34,30,56,029,34,05,39,264,32,07,34,060,28*76
$GPGSV,3,2,11,13,34,319,28,09,21,131,32,17,20,158,34,20,14,309,24*70
$GPGSV,3,3,11,08,10,044,13,19,00,182,14,11,00,088,12*47
$GLGSV,3,1,09,73,46,012,28,71,64,223,35,74,43,292,27,72,40,317,26*68
$GLGSV,3,2,09,70,22,174,34,83,17,095,32,82,10,042,,84,03,144,*6C
$GLGSV,3,3,09,75,03,255,*5F
$GPGSA,A,3,05,07,08,09,13,17,20,28,30,,,,1.4,1.1,0.9*32
$GNGSA,A,3,05,07,08,09,13,17,20,28,30,,,,1.4,1.1,0.9*2C
$GNGSA,A,3,,,,,,,,,,,,,1.4,1.1,0.9*20
$QZGSA,A,3,,,,,,,,,,,,,1.4,1.1,0.9*22
$IMGSA,A,3,,,,,,,,,,,,,1.4,1.1,0.9*2D
$PGLOR,1,FIX,1.0,1.0*20
$GPRMC,102412.00,A,3205.948085,N,03448.596175,E,000.0,,050416,,,A*7C
$PGLOR,SPL,20160405132409.5,POS,20160405102411.999,32.099135,34.809936,6,6,0,22,3,1.100000
$GPGGA,102413.00,3205.944798,N,03448.594586,E,1,09,0.6,2.8,M,19.2,M,,*65
$PGLOR,5,STA,102413.00,-0.040,0.000,178,1,6,0,P,F,L,0,C,3,S,0012,0,2,R,33F4,TPeF,12,47,LC,,*52
$PGLOR,1,UNC,102413.00,0.011,6.0,3.0,0.16,180.00,4.4,4.1,-37.1*3E
$PGLOR,2,SAT,3,1,G28,029,1F,G30,031,1F,R09,025,13,G05,028,1F,G07,026,1F,G13,027,1F*55
$PGLOR,2,SAT,3,2,G09,034,1F,G17,037,1F,G20,018,1B,G08,012,1B,G19,007,10,G11,008,10*38
$PGLOR,2,SAT,3,3,R07,033,3,R10,025,3,R08,024,3,R06,034,3,R19,026,3*4D
$PGLOR,2,SIO,TxERR,0,RxERR,0,TxCNT,355,RxCNT,3935,MLFRMPKT,0,DTMS,999,DTIN,43,75,DTOUT,100,924,HATMD,70*1F
$PGLOR,0,HLA,102413.00,L,,Al,,A,21,H,,,M,,Ac,0,Gr,0,S,,,Sx,,,T,0,Tr,,Mn,0*00
$PGLOR,3,PWR,mA,26.9,RFTm,999,OscTm,1000,MeasTm,1000,UTC,102413.00*07
$GPGSV,3,1,11,28,86,202,34,30,56,029,34,05,39,263,31,07,34,060,27*7D
$GPGSV,3,2,11,13,34,319,28,09,21,131,34,17,20,158,37,20,14,309,23*72
$GPGSV,3,3,11,08,10,044,13,19,00,182,13,11,00,088,12*40
$GLGSV,3,1,09,73,46,012,28,71,64,223,34,74,43,292,27,72,41,317,26*68
$GLGSV,3,2,09,70,22,174,34,83,17,095,32,82,10,042,,84,03,144,*6C
$GLGSV,3,3,09,75,03,255,*5F
$GPGSA,A,3,05,07,08,09,13,17,20,28,30,,,,1.4,1.1,0.9*32
$GNGSA,A,3,05,07,08,09,13,17,20,28,30,,,,1.4,1.1,0.9*2C
$GNGSA,A,3,,,,,,,,,,,,,1.4,1.1,0.9*20
$QZGSA,A,3,,,,,,,,,,,,,1.4,1.1,0.9*22
$IMGSA,A,3,,,,,,,,,,,,,1.4,1.1,0.9*2D
$PGLOR,1,FIX,1.0,1.0*20
$GPRMC,102413.00,A,3205.944798,N,03448.594586,E,000.0,,050416,,,A*70
$PGLOR,SPL,20160405132410.5,POS,20160405102412.999,32.099080,34.809910,6,6,0,22,3,1.100000
$GPGGA,102414.00,3205.944798,N,03448.594586,E,1,08,0.6,2.7,M,19.2,M,,*6C
$PGLOR,5,STA,102414.00,-0.040,0.000,178,1,6,0,P,F,L,0,C,3,S,0012,0,2,R,33F4,TPeF,12,48,LC,,*5A
$PGLOR,1,UNC,102414.00,0.011,6.0,3.0,0.15,180.00,4.4,4.1,-34.6*3E
$PGLOR,2,SAT,3,1,G28,028,1F,G30,033,1F,R09,025,13,G05,029,1F,G07,026,1F,G13,023,1F*53
$PGLOR,2,SAT,3,2,G09,034,1F,G17,039,1F,G20,016,1F,G08,012,10,G19,007,10,G11,007,10*41
$PGLOR,2,SAT,3,3,R07,035,3,R10,029,3,R08,023,3,R06,032,3,R19,027,3*47
$PGLOR,2,SIO,TxERR,0,RxERR,0,TxCNT,312,RxCNT,4015,MLFRMPKT,0,DTMS,1001,DTIN,32,63,DTOUT,100,937,HATMD,71*2B
$PGLOR,0,HLA,102414.00,L,,Al,,A,21,H,,,M,,Ac,0,Gr,0,S,,,Sx,,,T,0,Tr,,Mn,0*07
$PGLOR,3,PWR,mA,26.9,RFTm,1001,OscTm,1000,MeasTm,1000,UTC,102414.00*39
$GPGSV,3,1,11,28,86,202,33,30,56,029,34,05,39,263,31,07,34,060,27*7A
$GPGSV,3,2,11,13,34,319,28,09,21,131,34,17,20,158,39,20,14,309,23*7C
$GPGSV,3,3,11,08,10,044,13,19,00,182,12,11,00,088,11*42
$GLGSV,3,1,09,73,46,012,27,71,64,223,35,74,43,292,29,72,41,317,25*6B
$GLGSV,3,2,09,70,22,174,34,83,17,095,31,82,10,042,,84,03,144,*6F
$GLGSV,3,3,09,75,03,255,*5F
$GPGSA,A,3,05,07,09,13,17,20,28,30,,,,,1.3,1.0,0.8*3D
$GNGSA,A,3,05,07,09,13,17,20,28,30,,,,,1.3,1.0,0.8*23
$GNGSA,A,3,,,,,,,,,,,,,1.3,1.0,0.8*27
$QZGSA,A,3,,,,,,,,,,,,,1.3,1.0,0.8*25
$IMGSA,A,3,,,,,,,,,,,,,1.3,1.0,0.8*2A
$PGLOR,1,FIX,1.0,1.0*20
$GPRMC,102414.00,A,3205.944798,N,03448.594586,E,000.0,,050416,,,A*77
$PGLOR,SPL,20160405132411.5,POS,20160405102413.999,32.099080,34.809910,6,6,0,22,3,1.100000
$GPGGA,102415.00,3205.944798,N,03448.594586,E,1,08,0.6,2.7,M,19.2,M,,*6D
$PGLOR,5,STA,102415.00,-0.040,0.000,178,1,6,0,P,F,L,0,C,3,S,0012,0,2,R,33F4,TPeF,12,49,LC,,*5A
$PGLOR,1,UNC,102415.00,0.011,6.0,3.0,0.14,180.00,4.4,4.1,-32.9*37
$PGLOR,2,SAT,3,1,G28,028,1F,G30,033,1F,R09,027,13,G05,031,1F,G07,027,1F,G13,023,1F*59
$PGLOR,2,SAT,3,2,G09,032,1F,G17,036,1F,G20,015,11,G08,012,10,G19,007,10,G11,007,10*3C
$PGLOR,2,SAT,3,3,R07,034,3,R10,030,3,R08,022,3,R06,031,3,R19,026,3*4D
$PGLOR,2,SIO,TxERR,0,RxERR,0,TxCNT,355,RxCNT,3943,MLFRMPKT,0,DTMS,999,DTIN,20,36,DTOUT,101,961,HATMD,70*1C
$PGLOR,0,HLA,102415.00,L,,Al,,A,21,H,,,M,,Ac,0,Gr,0,S,,,Sx,,,T,0,Tr,,Mn,0*06
$PGLOR,3,PWR,mA,26.9,RFTm,998,OscTm,1000,MeasTm,1000,UTC,102415.00*00
$GPGSV,3,1,11,28,86,202,33,30,56,029,34,05,39,263,31,07,34,060,27*7A
$GPGSV,3,2,11,13,34,319,27,09,21,131,34,17,20,158,38,20,14,309,22*73
$GPGSV,3,3,11,08,10,044,13,19,00,182,12,11,00,088,11*42
$GLGSV,3,1,09,73,46,012,27,71,64,223,35,74,43,292,30,72,41,317,25*63
$GLGSV,3,2,09,70,22,174,33,83,17,095,31,82,10,042,,84,03,144,*68
$GLGSV,3,3,09,75,03,255,*5F
$GPGSA,A,3,05,07,09,13,17,20,28,30,,,,,1.4,1.1,0.9*3A
$GNGSA,A,3,05,07,09,13,17,20,28,30,,,,,1.4,1.1,0.9*24
$GNGSA,A,3,,,,,,,,,,,,,1.4,1.1,0.9*20
$QZGSA,A,3,,,,,,,,,,,,,1.4,1.1,0.9*22
$IMGSA,A,3,,,,,,,,,,,,,1.4,1.1,0.9*2D
$PGLOR,1,FIX,1.0,1.0*20
$GPRMC,102415.00,A,3205.944798,N,03448.594586,E,000.0,,050416,,,A*76
$PGLOR,SPL,20160405132412.5,POS,20160405102414.999,32.099080,34.809910,6,6,0,22,3,1.100000
$GPGGA,102416.00,3205.944798,N,03448.594586,E,1,08,0.6,2.7,M,19.2,M,,*6E
$PGLOR,5,STA,102416.00,-0.040,0.000,179,1,6,0,P,F,L,0,C,3,S,0012,0,2,R,33F4,TPeF,12,50,LC,,*50
$PGLOR,1,UNC,102416.00,0.011,6.0,3.0,0.14,180.00,4.4,4.1,-38.5*32
$PGLOR,2,SAT,3,1,G28,030,1F,G30,033,1F,R09,026,13,G05,032,1F,G07,025,1F,G13,024,1F*57
$PGLOR,2,SAT,3,2,G09,033,1F,G17,038,1F,G20,014,11,G08,011,10,G19,007,10,G11,007,10*31
$PGLOR,2,SAT,3,3,R07,034,3,R10,028,3,R08,024,3,R06,030,3,R19,024,3*41
$PGLOR,2,SIO,TxERR,0,RxERR,0,TxCNT,416,RxCNT,3990,MLFRMPKT,0,DTMS,1004,DTIN,34,75,DTOUT,101,929,HATMD,74*24
$PGLOR,0,HLA,102416.00,L,,Al,,A,21,H,,,M,,Ac,0,Gr,0,S,,,Sx,,,T,0,Tr,,Mn,0*05
$PGLOR,3,PWR,mA,26.9,RFTm,1002,OscTm,1000,MeasTm,1000,UTC,102416.00*38
$GPGSV,3,1,11,28,86,202,33,30,56,029,34,05,39,263,32,07,34,060,27*79
$GPGSV,3,2,11,13,34,319,27,09,21,131,34,17,20,158,38,20,14,309,21*70
$GPGSV,3,3,11,08,10,044,13,19,00,182,11,11,00,088,10*40
$GLGSV,3,1,09,73,46,012,27,71,64,223,35,74,43,292,30,72,41,317,25*63
$GLGSV,3,2,09,70,22,174,33,83,17,095,30,82,10,042,,84,03,144,*69
$GLGSV,3,3,09,75,03,255,*5F
$GPGSA,A,3,05,07,09,13,17,20,28,30,,,,,1.4,1.1,0.9*3A
$GNGSA,A,3,05,07,09,13,17,20,28,30,,,,,1.4,1.1,0.9*24
$GNGSA,A,3,,,,,,,,,,,,,1.4,1.1,0.9*20
$QZGSA,A,3,,,,,,,,,,,,,1.4,1.1,0.9*22
$IMGSA,A,3,,,,,,,,,,,,,1.4,1.1,0.9*2D
$PGLOR,1,FIX,1.0,1.0*20
$GPRMC,102416.00,A,3205.944798,N,03448.594586,E,000.0,,050416,,,A*75
$PGLOR,SPL,20160405132413.5,POS,20160405102415.999,32.099080,34.809910,6,6,0,22,3,1.100000
$GPGGA,102417.00,3205.944798,N,03448.594586,E,1,08,0.6,2.7,M,19.2,M,,*6F
$PGLOR,5,STA,102417.00,-0.040,0.000,179,1,6,0,P,F,L,0,C,3,S,0012,0,2,R,33F4,TPeF,12,51,LC,,*50
$PGLOR,1,UNC,102417.00,0.010,6.0,3.0,0.16,180.00,4.4,4.1,-51.6*3C
$PGLOR,2,SAT,3,1,G28,031,1F,G30,032,1F,R09,022,13,G05,030,1F,G07,025,1F,G13,020,1F*55
$PGLOR,2,SAT,3,2,G09,030,1F,G17,037,1F,G20,013,10,G08,011,1B,G19,007,10,G11,007,10*49
$PGLOR,2,SAT,3,3,R07,034,3,R10,026,3,R08,020,3,R06,029,3,R19,020,1*45
$PGLOR,2,SIO,TxERR,0,RxERR,0,TxCNT,320,RxCNT,4060,MLFRMPKT,0,DTMS,1004,DTIN,32,68,DTOUT,99,936,HATMD,78*1F
$PGLOR,0,HLA,102417.00,L,,Al,,A,21,H,,,M,,Ac,0,Gr,0,S,,,Sx,,,T,0,Tr,,Mn,0*04
$PGLOR,3,PWR,mA,26.9,RFTm,1000,OscTm,1000,MeasTm,1000,UTC,102417.00*3B
$GPGSV,3,1,11,28,86,202,32,30,56,029,34,05,39,263,32,07,34,060,27*78
$GPGSV,3,2,11,13,34,319,26,09,21,131,33,17,20,158,38,20,14,309,20*77
$GPGSV,3,3,11,08,10,044,13,19,00,182,11,11,00,088,10*40
$GLGSV,3,1,09,73,46,012,27,71,64,223,34,74,43,292,30,72,41,317,25*62
$GLGSV,3,2,09,70,22,174,33,83,17,095,29,82,10,042,,84,03,144,*61
$GLGSV,3,3,09,75,03,255,*5F
$GPGSA,A,3,05,07,08,09,13,17,28,30,,,,,1.4,1.1,0.9*30
$GNGSA,A,3,05,07,08,09,13,17,28,30,,,,,1.4,1.1,0.9*2E
$GNGSA,A,3,,,,,,,,,,,,,1.4,1.1,0.9*20
$QZGSA,A,3,,,,,,,,,,,,,1.4,1.1,0.9*22
$IMGSA,A,3,,,,,,,,,,,,,1.4,1.1,0.9*2D
$PGLOR,1,FIX,1.0,1.0*20
$GPRMC,102417.00,A,3205.944798,N,03448.594586,E,000.0,,050416,,,A*74
$PGLOR,SPL,20160405132414.5,POS,20160405102416.999,32.099080,34.809910,6,6,0,22,3,1.100000
$GPGGA,102418.00,3205.944798,N,03448.594586,E,1,08,0.6,2.7,M,19.2,M,,*60
$PGLOR,5,STA,102418.00,-0.040,0.000,179,1,6,0,P,F,L,0,C,3,S,0012,0,2,R,33F4,TPeF,12,52,LC,,*5C
$PGLOR,1,UNC,102418.00,0.010,6.0,3.0,0.18,180.00,4.3,4.2,-49.9*3F
$PGLOR,2,SAT,3,1,G28,032,1F,G30,033,1F,R09,023,13,G05,027,1F,G07,024,1F,G13,018,1F*5A
$PGLOR,2,SAT,3,2,G09,031,1F,G17,037,1F,G20,013,10,G08,011,1B,G19,007,10,G11,007,10*48
$PGLOR,2,SAT,3,3,R07,034,3,R10,025,3,R08,017,3,R06,028,3,R19,023,3*42
$PGLOR,2,SIO,TxERR,0,RxERR,0,TxCNT,356,RxCNT,3995,MLFRMPKT,0,DTMS,993,DTIN,33,50,DTOUT,100,942,HATMD,71*1D
$PGLOR,0,HLA,102418.00,L,,Al,,A,22,H,,,M,,Ac,0,Gr,0,S,,,Sx,,,T,0,Tr,,Mn,0*08
$PGLOR,3,PWR,mA,26.9,RFTm,1000,OscTm,1000,MeasTm,1000,UTC,102418.00*34
$GPGSV,3,1,11,28,86,202,32,30,56,029,34,05,39,263,31,07,34,060,27*7B
$GPGSV,3,2,11,13,34,319,25,09,21,131,33,17,20,158,38,20,14,309,20*74
$GPGSV,3,3,11,08,10,044,12,19,00,182,11,11,00,088,10*41
$GLGSV,3,1,09,73,46,012,26,71,64,223,34,74,43,292,29,72,41,317,24*6A
$GLGSV,3,2,09,70,22,174,32,83,17,095,28,82,10,042,,84,03,144,*61
$GLGSV,3,3,09,75,03,255,*5F
$GPGSA,A,3,05,07,08,09,13,17,28,30,,,,,1.4,1.1,0.9*30
$GNGSA,A,3,05,07,08,09,13,17,28,30,,,,,1.4,1.1,0.9*2E
$GNGSA,A,3,,,,,,,,,,,,,1.4,1.1,0.9*20
$QZGSA,A,3,,,,,,,,,,,,,1.4,1.1,0.9*22
$IMGSA,A,3,,,,,,,,,,,,,1.4,1.1,0.9*2D
$PGLOR,1,FIX,1.0,1.0*20
$GPRMC,102418.00,A,3205.944798,N,03448.594586,E,000.0,,050416,,,A*7B
$PGLOR,SPL,20160405132415.5,POS,20160405102417.999,32.099080,34.809910,6,6,0,22,3,1.100000
$GPGGA,102419.00,3205.944798,N,03448.594586,E,1,08,0.6,2.7,M,19.2,M,,*61
$PGLOR,5,STA,102419.00,-0.040,0.000,179,1,6,0,P,F,L,0,C,3,S,0012,0,2,R,33F4,TPeF,12,53,LC,,*5C
$PGLOR,1,UNC,102419.00,0.010,6.0,3.0,0.20,180.00,4.3,4.2,-32.7*37
$PGLOR,2,SAT,3,1,G28,031,1F,G30,034,1F,R09,024,13,G05,026,1F,G07,024,1F,G13,017,1F*57
$PGLOR,2,SAT,3,2,G09,029,1F,G17,036,1F,G20,012,10,G08,011,1B,G19,007,10,G11,007,10*41
$PGLOR,2,SAT,3,3,R07,032,3,R10,025,3,R08,021,3,R06,029,3,R19,021,3*42
$PGLOR,2,SIO,TxERR,0,RxERR,0,TxCNT,310,RxCNT,4029,MLFRMPKT,0,DTMS,1000,DTIN,42,53,DTOUT,101,945,HATMD,71*27
$PGLOR,0,HLA,102419.00,L,,Al,,A,21,H,,,M,,Ac,0,Gr,0,S,,,Sx,,,T,0,Tr,,Mn,0*0A
$PGLOR,3,PWR,mA,26.9,RFTm,1000,OscTm,1000,MeasTm,1000,UTC,102419.00*35
$GPGSV,3,1,11,28,86,202,32,30,56,029,34,05,39,263,31,07,34,060,26*7A
$GPGSV,3,2,11,13,34,319,25,09,21,131,32,17,20,158,38,20,14,309,19*7F
$GPGSV,3,3,11,08,10,044,12,19,00,182,10,11,00,088,09*48
$GLGSV,3,1,09,73,46,012,26,71,64,223,34,74,43,292,29,72,41,317,24*6A
$GLGSV,3,2,09,70,22,174,32,83,17,095,28,82,10,042,,84,03,144,*61
$GLGSV,3,3,09,75,03,255,*5F
$GPGSA,A,3,05,07,08,09,13,17,28,30,,,,,1.4,1.1,0.9*30
$GNGSA,A,3,05,07,08,09,13,17,28,30,,,,,1.4,1.1,0.9*2E
$GNGSA,A,3,,,,,,,,,,,,,1.4,1.1,0.9*20
$QZGSA,A,3,,,,,,,,,,,,,1.4,1.1,0.9*22
$IMGSA,A,3,,,,,,,,,,,,,1.4,1.1,0.9*2D
$PGLOR,1,FIX,1.0,1.0*20
$GPRMC,102419.00,A,3205.944798,N,03448.594586,E,000.0,,050416,,,A*7A
$PGLOR,SPL,20160405132416.5,POS,20160405102418.999,32.099080,34.809910,6,6,0,22,3,1.100000
$GPGGA,102420.00,3205.941702,N,03448.591970,E,1,07,0.6,2.7,M,19.2,M,,*62
$PGLOR,5,STA,102420.00,-0.040,0.000,179,1,6,1,P,F,L,0,C,3,S,0012,13,5,R,33F4,TPeF,12,54,LC,,*65
$PGLOR,1,UNC,102420.00,0.011,6.0,3.0,0.17,5.34,5.1,3.1,-63.4*33
$PGLOR,2,SAT,3,1,G28,030,1F,G30,030,1F,R09,027,13,G05,029,1F,G07,027,1F,G13,015,1F*5F
$PGLOR,2,SAT,3,2,G09,033,1F,G17,035,1F,G20,011,10,G08,010,10,G19,007,10,G11,007,10*39
$PGLOR,2,SAT,3,3,R07,030,3,R10,024,3,R08,019,3,R06,028,3,R19,023,3*49
$PGLOR,2,SIO,TxERR,0,RxERR,0,TxCNT,369,RxCNT,4009,MLFRMPKT,0,DTMS,1000,DTIN,20,36,DTOUT,100,962,HATMD,71*28
$PGLOR,0,HLA,102420.00,L,,Al,,A,22,H,,,M,,Ac,0,Gr,0,S,,,Sx,,,T,0,Tr,,Mn,0*03
$PGLOR,3,PWR,mA,26.9,RFTm,1000,OscTm,1000,MeasTm,1000,UTC,102420.00*3F
$GPGSV,3,1,11,28,86,202,32,30,56,029,34,05,39,263,31,07,34,061,27*7A
$GPGSV,3,2,11,13,34,319,24,09,21,131,33,17,20,158,38,20,14,309,18*7E
$GPGSV,3,3,11,08,10,044,12,19,00,182,10,11,00,088,09*48
$GLGSV,3,1,09,73,46,012,27,71,64,223,34,74,43,292,28,72,41,317,23*6D
$GLGSV,3,2,09,70,22,174,31,83,17,095,27,82,10,042,,84,03,144,*6D
$GLGSV,3,3,09,75,03,255,*5F
$GPGSA,A,3,05,07,09,13,17,28,30,,,,,,1.4,1.1,0.9*38
$GNGSA,A,3,05,07,09,13,17,28,30,,,,,,1.4,1.1,0.9*26
$GNGSA,A,3,,,,,,,,,,,,,1.4,1.1,0.9*20
$QZGSA,A,3,,,,,,,,,,,,,1.4,1.1,0.9*22
$IMGSA,A,3,,,,,,,,,,,,,1.4,1.1,0.9*2D
$PGLOR,1,FIX,1.0,1.0*20
$GPRMC,102420.00,A,3205.941702,N,03448.591970,E,002.6,,050416,,,A*72
$PGLOR,SPL,20160405132417.5,POS,20160405102419.999,32.099028,34.809866,6,6,0,22,3,1.100000
$GPGGA,102421.00,3205.940966,N,03448.591565,E,1,07,0.8,2.7,M,19.2,M,,*68
$PGLOR,5,STA,102421.00,-0.040,0.000,179,1,8,1,P,F,L,0,C,3,S,0012,15,5,R,33F4,TPeF,12,55,LC,,*6D
$PGLOR,1,UNC,102421.00,0.011,8.0,3.0,0.27,5.49,7.2,3.5,-67.0*30
$PGLOR,2,SAT,3,1,G28,030,1F,G30,027,1F,R09,027,13,G05,029,1F,G07,023,1F,G13,011,1F*59
$PGLOR,2,SAT,3,2,G09,036,1F,G17,031,1F,G20,010,10,G08,010,10,G19,007,10,G11,007,10*39
$PGLOR,2,SAT,3,3,R07,031,3,R10,022,3,R08,018,3,R06,025,3,R19,021,3*40
$PGLOR,2,SIO,TxERR,0,RxERR,0,TxCNT,413,RxCNT,4025,MLFRMPKT,0,DTMS,1000,DTIN,22,25,DTOUT,100,976,HATMD,71*29
$PGLOR,0,HLA,102421.00,L,,Al,,A,22,H,,,M,,Ac,0,Gr,0,S,,,Sx,,,T,0,Tr,,Mn,0*02
$PGLOR,3,PWR,mA,26.9,RFTm,1001,OscTm,1000,MeasTm,1000,UTC,102421.00*3F
$GPGSV,3,1,11,28,86,202,32,30,56,029,33,05,39,263,30,07,34,061,26*7D
$GPGSV,3,2,11,13,34,319,22,09,21,131,36,17,20,158,37,20,14,309,17*7D
$GPGSV,3,3,11,08,10,044,12,19,00,182,10,11,00,088,09*48
$GLGSV,3,1,09,73,46,012,27,71,64,223,33,74,43,292,28,72,41,317,23*6A
$GLGSV,3,2,09,70,21,174,31,83,17,095,27,82,10,042,,84,03,144,*6E
$GLGSV,3,3,09,75,03,255,*5F
$GPGSA,A,3,05,07,09,13,17,28,30,,,,,,1.4,1.1,0.9*38
$GNGSA,A,3,05,07,09,13,17,28,30,,,,,,1.4,1.1,0.9*26
$GNGSA,A,3,,,,,,,,,,,,,1.4,1.1,0.9*20
$QZGSA,A,3,,,,,,,,,,,,,1.4,1.1,0.9*22
$IMGSA,A,3,,,,,,,,,,,,,1.4,1.1,0.9*2D
$PGLOR,1,FIX,1.0,1.0*20
$GPRMC,102421.00,A,3205.940966,N,03448.591565,E,003.0,,050416,,,A*71
$PGLOR,SPL,20160405132418.5,POS,20160405102420.999,32.099016,34.809859,8,8,0,22,3,1.100000
$GPGGA,102422.00,3205.940966,N,03448.591565,E,1,08,0.8,2.7,M,19.2,M,,*64
$PGLOR,5,STA,102422.00,-0.040,0.000,178,1,8,0,P,F,L,0,C,3,S,0012,15,5,R,33F4,TPeF,12,56,LC,,*6D
$PGLOR,1,UNC,102422.00,0.012,8.0,3.0,0.27,180.00,6.8,4.2,-65.3*3B
$PGLOR,2,SAT,3,1,G28,030,1F,G30,024,1F,R09,029,13,G05,027,1F,G07,021,1F,G13,010,11*2E
$PGLOR,2,SAT,3,2,G09,038,1F,G17,029,1F,G20,011,10,G08,012,1F,G19,007,10,G11,013,10*4E
$PGLOR,2,SAT,3,3,R07,034,3,R10,021,3,R08,017,3,R06,022,3,R19,019,3*45
$PGLOR,2,SIO,TxERR,0,RxERR,0,TxCNT,327,RxCNT,4029,MLFRMPKT,0,DTMS,1003,DTIN,14,32,DTOUT,100,969,HATMD,74*2E
$PGLOR,0,HLA,102422.00,L,,Al,,A,22,H,,,M,,Ac,0,Gr,0,S,,,Sx,,,T,0,Tr,,Mn,0*01
$PGLOR,3,PWR,mA,26.9,RFTm,999,OscTm,1000,MeasTm,1000,UTC,102422.00*05
$GPGSV,3,1,11,28,86,202,32,30,56,029,32,05,39,263,30,07,34,061,26*7C
$GPGSV,3,2,11,13,34,319,21,09,21,131,38,17,20,158,36,20,14,309,17*71
$GPGSV,3,3,11,08,10,044,12,19,00,182,09,11,00,088,13*4B
$GLGSV,3,1,09,73,46,012,29,71,64,223,34,74,43,292,27,72,41,317,22*6D
$GLGSV,3,2,09,70,21,174,30,83,17,095,26,82,10,042,,84,03,144,*6E
$GLGSV,3,3,09,75,03,255,*5F
$GPGSA,A,3,05,07,08,09,13,17,28,30,,,,,1.4,1.1,0.9*30
$GNGSA,A,3,05,07,08,09,13,17,28,30,,,,,1.4,1.1,0.9*2E
$GNGSA,A,3,,,,,,,,,,,,,1.4,1.1,0.9*20
$QZGSA,A,3,,,,,,,,,,,,,1.4,1.1,0.9*22
$IMGSA,A,3,,,,,,,,,,,,,1.4,1.1,0.9*2D
$PGLOR,1,FIX,1.0,1.0*20
$GPRMC,102422.00,A,3205.940966,N,03448.591565,E,000.0,,050416,,,A*71
$PGLOR,SPL,20160405132419.5,POS,20160405102421.999,32.099016,34.809859,8,8,0,22,3,1.100000
$GPGGA,102423.00,3205.940966,N,03448.591565,E,1,08,0.8,2.6,M,19.2,M,,*64
$PGLOR,5,STA,102423.00,-0.040,0.000,178,1,8,0,P,F,L,0,C,3,S,0012,15,5,R,33F4,TPeF,12,57,LC,,*6D
$PGLOR,1,UNC,102423.00,0.013,8.0,3.0,0.22,180.00,6.6,4.6,-62.4*34
$PGLOR,2,SAT,3,1,G28,028,1F,G30,027,1F,R09,028,13,G05,026,1F,G07,023,1F,G13,021,1F*53
$PGLOR,2,SAT,3,2,G09,040,1F,G17,032,1F,G20,011,10,G08,011,1F,G19,015,10,G11,007,10*4E
$PGLOR,2,SAT,3,3,R07,034,3,R10,022,3,R08,020,3,R06,018,1,R19,020,3*43
$PGLOR,2,SIO,TxERR,0,RxERR,0,TxCNT,358,RxCNT,4027,MLFRMPKT,0,DTMS,1003,DTIN,36,56,DTOUT,100,947,HATMD,77*25
$PGLOR,0,HLA,102423.00,L,,Al,,A,22,H,,,M,,Ac,0,Gr,0,S,,,Sx,,,T,0,Tr,,Mn,0*00
$PGLOR,3,PWR,mA,26.9,RFTm,1002,OscTm,1000,MeasTm,1000,UTC,102423.00*3E
$GPGSV,3,1,11,28,86,202,31,30,56,029,31,05,39,263,30,07,34,061,25*7F
$GPGSV,3,2,11,13,34,319,21,09,21,131,40,17,20,158,36,20,14,309,16*7F
$GPGSV,3,3,11,08,10,044,12,19,00,182,15,11,00,088,13*46
$GLGSV,3,1,09,73,46,012,29,71,64,223,34,74,43,292,26,72,41,317,22*6C
$GLGSV,3,2,09,70,21,174,29,83,17,095,25,82,10,042,,84,03,144,*65
$GLGSV,3,3,09,75,03,255,*5F
$GPGSA,A,3,05,07,08,09,13,17,28,30,,,,,1.3,0.9,0.9*3E
$GNGSA,A,3,05,07,08,09,13,17,28,30,,,,,1.3,0.9,0.9*20
$GNGSA,A,3,,,,,,,,,,,,,1.3,0.9,0.9*2E
$QZGSA,A,3,,,,,,,,,,,,,1.3,0.9,0.9*2C
$IMGSA,A,3,,,,,,,,,,,,,1.3,0.9,0.9*23
$PGLOR,1,FIX,1.0,1.0*20
$GPRMC,102423.00,A,3205.940966,N,03448.591565,E,000.0,,050416,,,A*70
$PGLOR,SPL,20160405132420.5,POS,20160405102422.999,32.099016,34.809859,8,8,0,22,3,1.100000
$GPGGA,102424.00,3205.939689,N,03448.591011,E,1,08,0.8,2.6,M,19.2,M,,*65
$PGLOR,5,STA,102424.00,-0.040,0.000,178,1,8,1,P,F,L,0,C,3,S,0012,17,5,R,33F4,TPeF,12,58,LC,,*66
$PGLOR,1,UNC,102424.00,0.013,8.0,3.0,0.17,180.00,6.3,4.9,-58.1*33
$PGLOR,2,SAT,3,1,G28,030,1F,G30,028,1F,R09,028,13,G05,024,1F,G07,029,1F,G13,022,1F*5E
$PGLOR,2,SAT,3,2,G09,040,1F,G17,033,1F,G20,022,10,G08,011,1F,G19,007,10,G11,007,10*4C
$PGLOR,2,SAT,3,3,R07,034,3,R10,026,3,R08,022,3,R06,016,3,R19,018,3*42
$PGLOR,2,SIO,TxERR,0,RxERR,0,TxCNT,320,RxCNT,4084,MLFRMPKT,0,DTMS,995,DTIN,41,53,DTOUT,100,943,HATMD,72*10
$PGLOR,0,HLA,102424.00,L,,Al,,A,22,H,,,M,,Ac,0,Gr,0,S,,,Sx,,,T,0,Tr,,Mn,0*07
$PGLOR,3,PWR,mA,26.9,RFTm,999,OscTm,1000,MeasTm,1000,UTC,102424.00*03
$GPGSV,3,1,11,28,86,202,31,30,56,029,31,05,39,263,29,07,34,061,29*7B
$GPGSV,3,2,11,13,34,319,22,09,21,131,40,17,20,158,35,20,14,309,22*78
$GPGSV,3,3,11,08,10,044,12,19,00,182,14,11,00,088,12*46
$GLGSV,3,1,09,73,46,012,29,71,64,223,34,74,43,292,26,72,41,317,22*6C
$GLGSV,3,2,09,70,21,174,27,83,17,095,24,82,10,042,,75,04,255,*60
$GLGSV,3,3,09,84,03,144,*52
$GPGSA,A,3,05,07,08,09,13,17,28,30,,,,,1.3,0.9,0.9*3E
$GNGSA,A,3,05,07,08,09,13,17,28,30,,,,,1.3,0.9,0.9*20
$GNGSA,A,3,,,,,,,,,,,,,1.3,0.9,0.9*2E
$QZGSA,A,3,,,,,,,,,,,,,1.3,0.9,0.9*2C
$IMGSA,A,3,,,,,,,,,,,,,1.3,0.9,0.9*23
$PGLOR,1,FIX,1.0,1.0*20
$GPRMC,102424.00,A,3205.939689,N,03448.591011,E,001.7,,050416,,,A*77
$PGLOR,SPL,20160405132421.5,POS,20160405102423.999,32.098995,34.809850,8,8,0,22,3,1.100000
$GPGGA,102425.00,3205.939689,N,03448.591011,E,1,08,0.6,2.6,M,19.2,M,,*6A
$PGLOR,5,STA,102425.00,-0.040,0.000,177,1,6,0,P,F,L,0,C,3,S,0012,17,5,R,33F4,TPeF,12,59,LC,,*66
$PGLOR,1,UNC,102425.00,0.013,6.0,3.0,0.20,180.00,4.6,3.8,-52.0*32
$PGLOR,2,SAT,3,1,G28,030,1F,G30,026,1F,R09,027,13,G05,022,1F,G07,029,1F,G13,020,1F*5B
$PGLOR,2,SAT,3,2,G09,040,1F,G17,032,1F,G20,007,10,G08,010,1F,G19,007,10,G11,007,10*4B
$PGLOR,2,SAT,3,3,R07,032,3,R10,024,3,R08,022,3,R06,017,3,R19,017,3*48
$PGLOR,2,SIO,TxERR,0,RxERR,0,TxCNT,357,RxCNT,4041,MLFRMPKT,0,DTMS,1001,DTIN,38,73,DTOUT,101,928,HATMD,73*2D
$PGLOR,0,HLA,102425.00,L,,Al,,A,22,H,,,M,,Ac,0,Gr,0,S,,,Sx,,,T,0,Tr,,Mn,0*06
$PGLOR,3,PWR,mA,26.9,RFTm,1000,OscTm,1000,MeasTm,1000,UTC,102425.00*3A
$GPGSV,3,1,11,28,86,202,31,30,56,029,31,05,39,263,28,07,34,061,29*7A
$GPGSV,3,2,11,13,34,319,21,09,21,131,40,17,20,158,35,20,14,309,20*79
$GPGSV,3,3,11,08,10,044,11,19,00,182,13,11,00,088,12*42
$GLGSV,3,1,09,73,46,012,29,71,63,223,34,74,43,292,26,72,41,317,22*6B
$GLGSV,3,2,09,70,21,174,26,83,17,095,24,82,10,042,,75,04,255,*61
$GLGSV,3,3,09,84,03,144,*52
$GPGSA,A,3,05,07,08,09,13,17,28,30,,,,,1.3,0.9,0.9*3E
$GNGSA,A,3,05,07,08,09,13,17,28,30,,,,,1.3,0.9,0.9*20
$GNGSA,A,3,,,,,,,,,,,,,1.3,0.9,0.9*2E
$QZGSA,A,3,,,,,,,,,,,,,1.3,0.9,0.9*2C
$IMGSA,A,3,,,,,,,,,,,,,1.3,0.9,0.9*23
$PGLOR,1,FIX,1.0,1.0*20
$GPRMC,102425.00,A,3205.939689,N,03448.591011,E,000.0,,050416,,,A*70
$PGLOR,SPL,20160405132422.5,POS,20160405102424.999,32.098995,34.809850,6,6,0,22,3,1.100000
$GPGGA,102426.00,3205.939689,N,03448.591011,E,1,08,0.6,2.6,M,19.2,M,,*69
$PGLOR,5,STA,102426.00,-0.040,0.000,178,1,6,0,P,F,L,0,C,3,S,0012,17,5,R,33F4,TPeF,12,60,LC,,*60
$PGLOR,1,UNC,102426.00,0.012,6.0,3.0,0.18,180.00,4.5,4.0,-40.8*3C
$PGLOR,2,SAT,3,1,G28,028,1F,G30,025,1F,R09,024,13,G05,026,1F,G07,029,1F,G13,022,1F*54
$PGLOR,2,SAT,3,2,G09,040,1F,G17,031,1F,G20,010,10,G08,011,1B,G19,007,10,G11,007,10*4B
$PGLOR,2,SAT,3,3,R07,031,3,R10,024,3,R08,019,3,R06,019,3,R19,021,3*48
$PGLOR,2,SIO,TxERR,0,RxERR,0,TxCNT,457,RxCNT,4026,MLFRMPKT,0,DTMS,1002,DTIN,24,64,DTOUT,100,937,HATMD,75*2A
$PGLOR,0,HLA,102426.00,L,,Al,,A,21,H,,,M,,Ac,0,Gr,0,S,,,Sx,,,T,0,Tr,,Mn,0*06
$PGLOR,3,PWR,mA,26.9,RFTm,1000,OscTm,1000,MeasTm,1000,UTC,102426.00*39
$GPGSV,3,1,11,28,86,202,31,30,56,029,30,05,39,263,28,07,34,061,29*7B
$GPGSV,3,2,11,13,34,319,22,09,21,131,40,17,20,158,35,20,14,309,19*70
$GPGSV,3,3,11,08,10,044,11,19,00,182,13,11,00,088,11*41
$GLGSV,3,1,09,73,46,012,28,71,63,223,34,74,43,292,26,72,41,317,22*6A
$GLGSV,3,2,09,70,21,174,26,83,17,095,23,82,10,042,,75,04,255,*66
$GLGSV,3,3,09,84,03,144,*52
$GPGSA,A,3,05,07,08,09,13,17,28,30,,,,,1.4,1.1,0.9*30
$GNGSA,A,3,05,07,08,09,13,17,28,30,,,,,1.4,1.1,0.9*2E
$GNGSA,A,3,,,,,,,,,,,,,1.4,1.1,0.9*20
$QZGSA,A,3,,,,,,,,,,,,,1.4,1.1,0.9*22
$IMGSA,A,3,,,,,,,,,,,,,1.4,1.1,0.9*2D
$PGLOR,1,FIX,1.0,1.0*20
$GPRMC,102426.00,A,3205.939689,N,03448.591011,E,000.0,,050416,,,A*73
$PGLOR,SPL,20160405132423.5,POS,20160405102425.999,32.098995,34.809850,6,6,0,22,3,1.100000
$GPGGA,102427.00,3205.938898,N,03448.590587,E,1,09,1.2,2.7,M,19.2,M,,*69
$PGLOR,5,STA,102427.00,-0.040,0.000,178,1,12,1,P,F,L,0,C,3,S,0012,19,5,R,33F4,TPeF,12,61,LC,,*5A
$PGLOR,1,UNC,102427.00,0.011,12.0,3.1,0.19,180.00,8.9,8.0,-26.5*0A
$PGLOR,2,SAT,3,1,G28,026,1F,G30,024,1F,R09,022,13,G05,025,1F,G07,029,1F,G13,029,1F*55
$PGLOR,2,SAT,3,2,G09,039,1F,G17,029,1F,G20,009,1F,G08,020,1F,G19,014,10,G11,007,10*36
$PGLOR,2,SAT,3,3,R07,029,3,R10,025,3,R08,020,3,R06,020,3,R19,024,3*45
$PGLOR,2,SIO,TxERR,0,RxERR,0,TxCNT,309,RxCNT,4115,MLFRMPKT,0,DTMS,998,DTIN,27,54,DTOUT,100,943,HATMD,73*19
$PGLOR,0,HLA,102427.00,L,,Al,,A,21,H,,,M,,Ac,0,Gr,0,S,,,Sx,,,T,0,Tr,,Mn,0*07
$PGLOR,3,PWR,mA,26.9,RFTm,1000,OscTm,1000,MeasTm,1000,UTC,102427.00*38
$PGLOR,2,PFM,HAL,P,0,0,100,0,RF,-,-129,30.2,0,RTC,,P,STO,P,LTO,F,SW,P,CNTIN,CP,7,OSC,P,P,P*2B
$GPGSV,3,1,11,28,86,202,30,30,56,029,29,05,39,263,28,07,34,061,29*72
$GPGSV,3,2,11,13,34,319,29,09,21,131,40,17,20,158,34,20,14,309,18*7B
$GPGSV,3,3,11,08,10,044,20,19,00,182,14,11,00,088,11*44
$GLGSV,3,1,09,73,46,012,28,71,63,223,33,74,43,292,26,72,41,317,22*6D
$GLGSV,3,2,09,70,21,174,25,83,17,095,24,82,10,042,,75,04,255,*62
$GLGSV,3,3,09,84,03,144,*52
$GPGSA,A,3,05,07,08,09,13,17,20,28,30,,,,1.2,0.9,0.8*3C
$GNGSA,A,3,05,07,08,09,13,17,20,28,30,,,,1.2,0.9,0.8*22
$GNGSA,A,3,,,,,,,,,,,,,1.2,0.9,0.8*2E
$QZGSA,A,3,,,,,,,,,,,,,1.2,0.9,0.8*2C
$IMGSA,A,3,,,,,,,,,,,,,1.2,0.9,0.8*23
$PGLOR,1,FIX,1.0,1.0*20
$GPRMC,102427.00,A,3205.938898,N,03448.590587,E,001.9,,050416,,,A*7E
$PGLOR,SPL,20160405132424.5,POS,20160405102426.999,32.098982,34.809843,12,12,0,22,3,1.100000
$GPGGA,102428.00,3205.938898,N,03448.590587,E,1,09,0.8,2.7,M,19.2,M,,*6D
$PGLOR,5,STA,102428.00,-0.040,0.000,178,1,8,0,P,F,L,0,C,3,S,0012,19,5,R,33F4,TPeF,12,62,LC,,*6C
$PGLOR,1,UNC,102428.00,0.011,8.0,3.0,0.31,180.00,6.0,5.3,-19.5*30
$PGLOR,2,SAT,3,1,G28,025,1F,G30,025,1F,R09,022,13,G05,026,1F,G07,029,1F,G13,028,1F*55
$PGLOR,2,SAT,3,2,G09,040,1F,G17,026,1F,G20,009,1F,G08,022,1F,G19,013,10,G11,007,10*32
$PGLOR,2,SAT,3,3,R07,032,3,R10,020,3,R08,020,3,R06,018,3,R19,026,3*43
$PGLOR,2,SIO,TxERR,0,RxERR,0,TxCNT,354,RxCNT,4033,MLFRMPKT,0,DTMS,999,DTIN,21,45,DTOUT,100,953,HATMD,72*13
$PGLOR,0,HLA,102428.00,L,,Al,,A,21,H,,,M,,Ac,0,Gr,0,S,,,Sx,,,T,0,Tr,,Mn,0*08
$PGLOR,3,PWR,mA,26.9,RFTm,1000,OscTm,1000,MeasTm,1000,UTC,102428.00*37
$GPGSV,3,1,11,28,86,202,30,30,56,029,29,05,39,263,28,07,34,061,29*72
$GPGSV,3,2,11,13,34,319,29,09,21,131,40,17,20,158,33,20,14,309,17*73
$GPGSV,3,3,11,08,10,044,22,19,00,182,14,11,00,088,10*47
$GLGSV,3,1,09,73,46,012,27,71,63,223,33,74,43,292,25,72,41,317,21*62
$GLGSV,3,2,09,70,21,174,24,83,17,095,26,82,10,042,,75,04,255,*61
$GLGSV,3,3,09,84,03,144,*52
$GPGSA,A,3,05,07,08,09,13,17,20,28,30,,,,1.2,0.9,0.8*3C
$GNGSA,A,3,05,07,08,09,13,17,20,28,30,,,,1.2,0.9,0.8*22
$GNGSA,A,3,,,,,,,,,,,,,1.2,0.9,0.8*2E
$QZGSA,A,3,,,,,,,,,,,,,1.2,0.9,0.8*2C
$IMGSA,A,3,,,,,,,,,,,,,1.2,0.9,0.8*23
$PGLOR,1,FIX,1.0,1.0*20
$GPRMC,102428.00,A,3205.938898,N,03448.590587,E,000.0,,050416,,,A*79
$PGLOR,SPL,20160405132425.5,POS,20160405102427.999,32.098982,34.809843,8,8,0,22,3,1.100000
$GPGGA,102429.00,3205.938898,N,03448.590587,E,1,07,0.6,2.7,M,19.2,M,,*6C
$PGLOR,5,STA,102429.00,-0.040,0.000,179,1,6,0,P,F,L,0,C,3,S,0012,19,5,R,33F4,TPeF,12,63,LC,,*63
$PGLOR,1,UNC,102429.00,0.011,6.0,3.0,0.22,180.00,4.5,4.0,-13.9*3E
$PGLOR,2,SAT,3,1,G28,025,1F,G30,031,1F,R09,019,13,G05,025,1F,G13,023,10,G07,026,1F*29
$PGLOR,2,SAT,3,2,G09,037,1F,G17,026,1F,G20,008,10,G08,018,15,G11,007,10,G19,012,10*3E
$PGLOR,2,SAT,3,3,R07,032,3,R10,018,3,R08,027,3,R06,020,3,R19,026,3*44
$PGLOR,2,SIO,TxERR,0,RxERR,0,TxCNT,321,RxCNT,4039,MLFRMPKT,0,DTMS,998,DTIN,27,35,DTOUT,101,965,HATMD,70*1D
$PGLOR,0,HLA,102429.00,L,,Al,,A,21,H,,,M,,Ac,0,Gr,0,S,,,Sx,,,T,0,Tr,,Mn,0*09
$PGLOR,3,PWR,mA,26.9,RFTm,999,OscTm,1000,MeasTm,1000,UTC,102429.00*0E
$GPGSV,3,1,11,28,86,202,29,30,56,029,31,05,39,263,27,13,35,319,28*75
$GPGSV,3,2,11,07,34,061,29,09,21,131,40,17,20,158,32,20,14,309,16*7A
$GPGSV,3,3,11,08,10,044,21,11,00,088,10,19,00,182,14*44
$GLGSV,3,1,09,73,46,012,26,71,63,223,33,74,43,292,24,72,41,317,27*64
$GLGSV,3,2,09,70,21,174,24,83,17,095,26,82,10,042,,75,04,255,*61
$GLGSV,3,3,09,84,03,144,*52
$GPGSA,A,3,05,07,08,09,17,28,30,,,,,,1.4,1.1,0.9*32
$GNGSA,A,3,05,07,08,09,17,28,30,,,,,,1.4,1.1,0.9*2C
$GNGSA,A,3,,,,,,,,,,,,,1.4,1.1,0.9*20
$QZGSA,A,3,,,,,,,,,,,,,1.4,1.1,0.9*22
$IMGSA,A,3,,,,,,,,,,,,,1.4,1.1,0.9*2D
$PGLOR,1,FIX,1.0,1.0*20
$GPRMC,102429.00,A,3205.938898,N,03448.590587,E,000.0,,050416,,,A*78
$PGLOR,SPL,20160405132426.5,POS,20160405102428.999,32.098982,34.809843,6,6,0,22,3,1.100000
$GPGGA,102430.00,3205.938898,N,03448.590587,E,1,09,0.6,2.7,M,19.2,M,,*6A
$PGLOR,5,STA,102430.00,-0.040,0.000,178,1,6,0,P,F,L,0,C,3,S,0012,19,5,R,33F4,TPeF,12,64,LC,,*6D
$PGLOR,1,UNC,102430.00,0.011,6.0,3.0,0.20,180.00,4.5,4.0,-8.5*02
$PGLOR,2,SAT,3,1,G28,025,1F,G30,032,1F,R09,021,13,G05,025,1F,G13,020,1B,G07,029,1F*5F
$PGLOR,2,SAT,3,2,G09,035,1F,G17,029,1F,G20,011,1F,G08,020,1F,G11,007,10,G19,012,10*35
$PGLOR,2,SAT,3,3,R07,031,3,R10,019,3,R08,025,3,R06,022,3,R19,029,3*49
$PGLOR,2,SIO,TxERR,0,RxERR,0,TxCNT,342,RxCNT,3994,MLFRMPKT,0,DTMS,1006,DTIN,16,27,DTOUT,101,972,HATMD,76*2F
$PGLOR,0,HLA,102430.00,L,,Al,,A,21,H,,,M,,Ac,0,Gr,0,S,,,Sx,,,T,0,Tr,,Mn,0*01
$PGLOR,3,PWR,mA,26.9,RFTm,1000,OscTm,1000,MeasTm,1000,UTC,102430.00*3E
$GPGSV,3,1,11,28,86,202,29,30,56,029,32,05,39,263,27,13,35,319,27*79
$GPGSV,3,2,11,07,34,061,29,09,21,131,39,17,20,158,32,20,14,309,16*74
$GPGSV,3,3,11,08,10,044,21,11,00,088,10,19,00,182,14*44
$GLGSV,3,1,09,73,46,012,26,71,63,223,33,74,43,292,24,72,41,317,27*64
$GLGSV,3,2,09,70,21,174,24,83,17,095,29,82,10,042,,75,04,255,*6E
$GLGSV,3,3,09,84,03,144,*52
$GPGSA,A,3,05,07,08,09,13,17,20,28,30,,,,1.2,0.9,0.8*3C
$GNGSA,A,3,05,07,08,09,13,17,20,28,30,,,,1.2,0.9,0.8*22
$GNGSA,A,3,,,,,,,,,,,,,1.2,0.9,0.8*2E
$QZGSA,A,3,,,,,,,,,,,,,1.2,0.9,0.8*2C
$IMGSA,A,3,,,,,,,,,,,,,1.2,0.9,0.8*23
$PGLOR,1,FIX,1.0,1.0*20
$GPRMC,102430.00,A,3205.938898,N,03448.590587,E,000.0,,050416,,,A*70
$PGLOR,SPL,20160405132427.5,POS,20160405102429.999,32.098982,34.809843,6,6,0,22,3,1.100000
$GPGGA,102431.00,3205.938898,N,03448.590587,E,1,09,0.6,2.7,M,19.2,M,,*6B
$PGLOR,5,STA,102431.00,-0.040,0.000,178,1,6,0,P,F,L,0,C,3,S,0012,19,5,R,33F4,TPeF,12,65,LC,,*6D
$PGLOR,1,UNC,102431.00,0.011,6.0,3.0,0.20,180.00,4.5,3.9,-5.6*03
$PGLOR,2,SAT,3,1,G28,029,1F,G30,028,1F,R09,022,13,G05,025,1F,G13,020,1F,G07,029,1F*5F
$PGLOR,2,SAT,3,2,G09,033,1F,G17,030,1F,G20,013,1F,G08,018,1F,G11,007,10,G19,011,10*31
$PGLOR,2,SAT,3,3,R07,030,3,R10,018,3,R08,021,3,R06,024,3,R19,029,3*4B
$PGLOR,2,SIO,TxERR,0,RxERR,0,TxCNT,417,RxCNT,4016,MLFRMPKT,0,DTMS,995,DTIN,16,35,DTOUT,99,960,HATMD,71*29
$PGLOR,0,HLA,102431.00,L,,Al,,A,22,H,,,M,,Ac,0,Gr,0,S,,,Sx,,,T,0,Tr,,Mn,0*03
$PGLOR,3,PWR,mA,26.9,RFTm,1000,OscTm,1000,MeasTm,1000,UTC,102431.00*3F
$GPGSV,3,1,11,28,86,202,29,30,56,029,32,05,39,263,27,13,35,319,27*79
$GPGSV,3,2,11,07,34,061,29,09,21,131,39,17,20,158,32,20,14,309,16*74
$GPGSV,3,3,11,08,10,044,21,11,00,088,09,19,00,182,13*4B
$GLGSV,3,1,09,73,46,012,25,71,63,223,33,74,43,292,23,72,41,317,26*61
$GLGSV,3,2,09,70,21,174,24,83,17,095,29,82,10,042,,75,04,255,*6E
$GLGSV,3,3,09,84,03,144,*52
$GPGSA,A,3,05,07,08,09,13,17,20,28,30,,,,1.2,0.9,0.8*3C
$GNGSA,A,3,05,07,08,09,13,17,20,28,30,,,,1.2,0.9,0.8*22
$GNGSA,A,3,,,,,,,,,,,,,1.2,0.9,0.8*2E
$QZGSA,A,3,,,,,,,,,,,,,1.2,0.9,0.8*2C
$IMGSA,A,3,,,,,,,,,,,,,1.2,0.9,0.8*23
$PGLOR,1,FIX,1.0,1.0*20
$GPRMC,102431.00,A,3205.938898,N,03448.590587,E,000.0,,050416,,,A*71
$PGLOR,SPL,20160405132428.5,POS,20160405102430.999,32.098982,34.809843,6,6,0,22,3,1.100000
$GPGGA,102432.00,3205.937153,N,03448.591329,E,1,09,0.6,2.7,M,19.2,M,,*6A
$PGLOR,5,STA,102432.00,-0.040,0.000,178,1,6,1,P,F,L,0,C,3,S,0012,22,5,R,33F4,TPeF,12,66,LC,,*64
$PGLOR,1,UNC,102432.00,0.011,6.0,3.0,0.18,7.37,4.8,3.6,72.1*19
$PGLOR,2,SAT,3,1,G28,031,1F,G30,028,1F,R09,023,13,G05,025,1F,G13,021,1B,G07,031,1F*5B
$PGLOR,2,SAT,3,2,G09,033,1F,G17,030,1F,G20,014,1B,G08,017,1F,G11,016,10,G19,011,10*3D
$PGLOR,2,SAT,3,3,R07,027,3,R10,019,3,R08,022,3,R06,025,3,R19,028,3*4F
$PGLOR,2,SIO,TxERR,0,RxERR,0,TxCNT,344,RxCNT,4031,MLFRMPKT,0,DTMS,1002,DTIN,31,56,DTOUT,99,945,HATMD,73*1E
$PGLOR,0,HLA,102432.00,L,,Al,,A,21,H,,,M,,Ac,0,Gr,0,S,,,Sx,,,T,0,Tr,,Mn,0*03
$PGLOR,3,PWR,mA,26.9,RFTm,1000,OscTm,1000,MeasTm,1000,UTC,102432.00*3C
$GPGSV,3,1,11,28,86,202,31,30,56,030,31,05,39,263,27,13,35,319,26*7A
$GPGSV,3,2,11,07,34,061,31,09,21,131,38,17,20,158,32,20,14,309,15*7F
$GPGSV,3,3,11,08,10,044,21,11,00,088,16,19,00,182,13*45
$GLGSV,3,1,09,73,46,012,25,71,63,223,32,74,43,292,23,72,41,317,26*60
$GLGSV,3,2,09,70,21,174,25,83,17,095,29,82,10,042,,75,04,255,*6F
$GLGSV,3,3,09,84,03,144,*52
$GPGSA,A,3,05,07,08,09,13,17,20,28,30,,,,1.4,1.1,0.9*32
$GNGSA,A,3,05,07,08,09,13,17,20,28,30,,,,1.4,1.1,0.9*2C
$GNGSA,A,3,,,,,,,,,,,,,1.4,1.1,0.9*20
$QZGSA,A,3,,,,,,,,,,,,,1.4,1.1,0.9*22
$IMGSA,A,3,,,,,,,,,,,,,1.4,1.1,0.9*2D
$PGLOR,1,FIX,1.0,1.0*20
$GPRMC,102432.00,A,3205.937153,N,03448.591329,E,002.1,,050416,,,A*73
$PGLOR,SPL,20160405132429.5,POS,20160405102431.999,32.098953,34.809855,6,6,0,22,3,1.100000
$GPGGA,102433.00,3205.937153,N,03448.591329,E,1,09,0.6,2.6,M,19.2,M,,*6A
$PGLOR,5,STA,102433.00,-0.040,0.000,178,1,6,0,P,F,L,0,C,3,S,0012,22,5,R,33F4,TPeF,12,67,LC,,*65
$PGLOR,1,UNC,102433.00,0.011,6.0,3.0,0.18,180.00,4.4,4.1,57.0*18
$PGLOR,2,SAT,3,1,G28,029,1F,G30,025,1F,R09,022,13,G05,024,1F,G13,025,1F,G07,031,1F*5F
$PGLOR,2,SAT,3,2,G09,032,1F,G17,032,1F,G20,014,1F,G08,017,1F,G11,007,10,G19,007,10*3D
$PGLOR,2,SAT,3,3,R07,028,3,R10,014,3,R08,023,3,R06,024,3,R19,032,3*46
$PGLOR,2,SIO,TxERR,0,RxERR,0,TxCNT,321,RxCNT,4033,MLFRMPKT,0,DTMS,1000,DTIN,34,48,DTOUT,100,948,HATMD,73*2B
$PGLOR,0,HLA,102433.00,L,,Al,,A,21,H,,,M,,Ac,0,Gr,0,S,,,Sx,,,T,0,Tr,,Mn,0*02
$PGLOR,3,PWR,mA,26.9,RFTm,1000,OscTm,1000,MeasTm,1000,UTC,102433.00*3D
$GPGSV,3,1,11,28,86,202,31,30,56,030,31,05,39,263,26,13,35,319,26*7B
$GPGSV,3,2,11,07,34,061,31,09,21,131,38,17,20,158,32,20,14,309,15*7F
$GPGSV,3,3,11,08,10,044,20,11,00,088,15,19,00,182,13*47
$GLGSV,3,1,09,73,46,012,25,71,63,223,32,74,43,292,22,72,41,317,26*61
$GLGSV,3,2,09,70,21,174,25,83,17,095,32,82,10,042,,75,04,255,*65
$GLGSV,3,3,09,84,03,144,*52
$GPGSA,A,3,05,07,08,09,13,17,20,28,30,,,,1.2,0.9,0.8*3C
$GNGSA,A,3,05,07,08,09,13,17,20,28,30,,,,1.2,0.9,0.8*22
$GNGSA,A,3,,,,,,,,,,,,,1.2,0.9,0.8*2E
$QZGSA,A,3,,,,,,,,,,,,,1.2,0.9,0.8*2C
$IMGSA,A,3,,,,,,,,,,,,,1.2,0.9,0.8*23
$PGLOR,1,FIX,1.0,1.0*20
$GPRMC,102433.00,A,3205.937153,N,03448.591329,E,000.0,,050416,,,A*71
$PGLOR,SPL,20160405132430.5,POS,20160405102432.999,32.098953,34.809855,6,6,0,22,3,1.100000
$GPGGA,102434.00,3205.937153,N,03448.591329,E,1,09,0.6,2.6,M,19.2,M,,*6D
$PGLOR,5,STA,102434.00,-0.040,0.000,178,1,6,0,P,F,L,0,C,3,S,0012,22,5,R,33F4,TPeF,12,68,LC,,*6D
$PGLOR,1,UNC,102434.00,0.011,6.0,3.0,0.28,180.00,4.4,4.1,12.6*1B
$PGLOR,2,SAT,3,1,G28,027,1F,G30,022,1F,R09,019,13,G05,023,1F,G13,023,1F,G07,033,1F*5D
$PGLOR,2,SAT,3,2,G09,029,1F,G17,031,1F,G20,014,1B,G08,015,1F,G11,007,10,G19,007,10*32
$PGLOR,2,SAT,3,3,R07,027,3,R10,016,3,R08,022,3,R06,021,3,R19,031,13*7D
$PGLOR,2,SIO,TxERR,0,RxERR,0,TxCNT,341,RxCNT,3998,MLFRMPKT,0,DTMS,999,DTIN,43,51,DTOUT,100,946,HATMD,72*1D
$PGLOR,0,HLA,102434.00,L,,Al,,A,21,H,,,M,,Ac,0,Gr,0,S,,,Sx,,,T,0,Tr,,Mn,0*05
$PGLOR,3,PWR,mA,26.9,RFTm,1000,OscTm,1000,MeasTm,1000,UTC,102434.00*3A
$GPGSV,3,1,11,28,86,202,30,30,56,030,30,05,39,263,26,13,35,319,26*7B
$GPGSV,3,2,11,07,34,061,33,09,21,131,37,17,20,158,32,20,14,309,15*72
$GPGSV,3,3,11,08,10,044,20,11,00,088,14,19,00,182,12*47
$GLGSV,3,1,09,73,46,012,24,71,63,223,31,74,43,292,21,72,41,317,25*63
$GLGSV,3,2,09,70,21,174,24,83,17,095,32,82,10,042,,75,04,255,*64
$GLGSV,3,3,09,84,03,144,*52
$GPGSA,A,3,05,07,08,09,13,17,20,28,30,,,,1.3,0.9,0.9*3C
$GNGSA,A,3,05,07,08,09,13,17,20,28,30,,,,1.3,0.9,0.9*22
$GNGSA,A,3,,,,,,,,,,,,,1.3,0.9,0.9*2E
$QZGSA,A,3,,,,,,,,,,,,,1.3,0.9,0.9*2C
$IMGSA,A,3,,,,,,,,,,,,,1.3,0.9,0.9*23
$PGLOR,1,FIX,1.0,1.0*20
$GPRMC,102434.00,A,3205.937153,N,03448.591329,E,000.0,,050416,,,A*76
$PGLOR,SPL,20160405132431.5,POS,20160405102433.999,32.098953,34.809855,6,6,0,22,3,1.100000
$GPGGA,102435.00,3205.935668,N,03448.592532,E,1,09,0.8,2.6,M,19.2,M,,*60
$PGLOR,5,STA,102435.00,-0.040,0.000,179,1,8,1,P,F,L,0,C,3,S,0012,24,5,R,33F4,TPeF,13,69,LC,,*64
$PGLOR,1,UNC,102435.00,0.011,8.0,3.0,0.24,9.98,6.7,4.4,50.0*1D
$PGLOR,2,SAT,3,1,G28,025,1F,G30,027,1F,R09,022,13,G05,021,1F,G13,023,1F,G07,035,1F*56
$PGLOR,2,SAT,3,2,G09,028,1F,G17,030,1F,R19,030,13,G20,013,1F,G08,014,11,G11,007,10*55
$PGLOR,2,SAT,3,3,G19,012,10,R07,026,3,R10,016,3,R08,020,3,R06,016,3*6D
$PGLOR,2,SIO,TxERR,0,RxERR,0,TxCNT,321,RxCNT,4027,MLFRMPKT,0,DTMS,999,DTIN,15,36,DTOUT,100,962,HATMD,71*16
$PGLOR,0,HLA,102435.00,L,,Al,,A,21,H,,,M,,Ac,0,Gr,0,S,,,Sx,,,T,0,Tr,,Mn,0*04
$PGLOR,3,PWR,mA,26.9,RFTm,1000,OscTm,1000,MeasTm,1000,UTC,102435.00*3B
$GPGSV,3,1,11,28,86,203,30,30,56,030,29,05,39,263,26,13,35,319,25*71
$GPGSV,3,2,11,07,34,061,35,09,21,131,36,17,20,158,31,20,14,309,15*76
$GPGSV,3,3,11,08,10,044,19,11,00,088,14,19,00,182,12*4D
$GLGSV,3,1,09,73,46,012,24,83,17,095,32,71,63,223,31,74,43,292,21*61
$GLGSV,3,2,09,72,41,317,25,70,21,174,23,82,10,042,,75,04,255,*61
$GLGSV,3,3,09,84,03,144,*52
$GPGSA,A,3,05,07,08,09,13,17,20,28,30,,,,1.3,1.0,0.8*35
$GNGSA,A,3,05,07,08,09,13,17,20,28,30,,,,1.3,1.0,0.8*2B
$GNGSA,A,3,,,,,,,,,,,,,1.3,1.0,0.8*27
$QZGSA,A,3,,,,,,,,,,,,,1.3,1.0,0.8*25
$IMGSA,A,3,,,,,,,,,,,,,1.3,1.0,0.8*2A
$PGLOR,1,FIX,1.0,1.0*20
$GPRMC,102435.00,A,3205.935668,N,03448.592532,E,002.1,,050416,,,A*76
$PGLOR,SPL,20160405132432.5,POS,20160405102434.999,32.098928,34.809876,8,8,0,22,3,1.100000
$GPGGA,102436.00,3205.935668,N,03448.592532,E,1,09,0.8,2.5,M,19.2,M,,*60
$PGLOR,5,STA,102436.00,-0.040,0.000,178,1,8,0,P,F,L,0,C,3,S,0012,24,5,R,33F4,TPeF,13,70,LC,,*6F
$PGLOR,1,UNC,102436.00,0.011,8.0,3.0,0.29,9.89,6.8,4.2,50.9*13
$PGLOR,2,SAT,3,1,G28,025,1F,G30,029,1F,R09,027,13,G05,021,1F,G13,021,1F,G07,036,1F*5C
$PGLOR,2,SAT,3,2,G09,027,1F,G17,031,1F,R19,028,13,G20,012,1F,G08,014,1F,G11,007,10*24
$PGLOR,2,SAT,3,3,G19,007,10,R07,024,3,R10,018,3,R08,020,3,R06,015,3*66
$PGLOR,2,SIO,TxERR,0,RxERR,0,TxCNT,460,RxCNT,3990,MLFRMPKT,0,DTMS,999,DTIN,33,44,DTOUT,100,956,HATMD,70*11
$PGLOR,0,HLA,102436.00,L,,Al,,A,21,H,,,M,,Ac,0,Gr,0,S,,,Sx,,,T,0,Tr,,Mn,0*07
$PGLOR,3,PWR,mA,26.9,RFTm,1000,OscTm,1000,MeasTm,1000,UTC,102436.00*38
$GPGSV,3,1,11,28,86,203,29,30,56,030,29,05,39,263,25,13,35,319,25*7A
$GPGSV,3,2,11,07,34,061,36,09,21,131,35,17,20,158,31,20,14,309,15*76
$GPGSV,3,3,11,08,10,044,19,11,00,088,13,19,00,182,12*4A
$GLGSV,3,1,09,73,46,012,27,83,17,095,31,71,63,223,30,74,43,292,21*60
$GLGSV,3,2,09,72,41,317,24,70,21,174,23,82,10,042,,75,04,255,*60
$GLGSV,3,3,09,84,03,144,*52
$GPGSA,A,3,05,07,08,09,13,17,20,28,30,,,,1.2,0.9,0.8*3C
$GNGSA,A,3,05,07,08,09,13,17,20,28,30,,,,1.2,0.9,0.8*22
$GNGSA,A,3,,,,,,,,,,,,,1.2,0.9,0.8*2E
$QZGSA,A,3,,,,,,,,,,,,,1.2,0.9,0.8*2C
$IMGSA,A,3,,,,,,,,,,,,,1.2,0.9,0.8*23
$PGLOR,1,FIX,1.0,1.0*20
$GPRMC,102436.00,A,3205.935668,N,03448.592532,E,000.0,,050416,,,A*76
$PGLOR,SPL,20160405132433.5,POS,20160405102435.999,32.098928,34.809876,8,8,0,22,3,1.100000
$GPGGA,102437.00,3205.934990,N,03448.593120,E,1,09,0.4,2.5,M,19.2,M,,*62
$PGLOR,5,STA,102437.00,-0.040,0.000,179,1,4,1,P,F,L,0,C,3,S,0012,26,5,R,33F4,TPeF,13,71,LC,,*61
$PGLOR,1,UNC,102437.00,0.011,4.0,3.0,0.19,6.97,3.5,2.0,48.0*11
$PGLOR,2,SAT,3,1,G28,024,1F,G30,027,1F,R09,027,13,G05,024,1F,G13,021,1B,G07,036,1F*52
$PGLOR,2,SAT,3,2,G09,028,1F,G17,030,1F,R19,027,13,G20,013,1F,G08,015,1F,G11,007,10*25
$PGLOR,2,SAT,3,3,G19,007,10,R07,022,3,R10,024,3,R08,018,3,R06,022,3*60
$PGLOR,2,SIO,TxERR,0,RxERR,0,TxCNT,306,RxCNT,4086,MLFRMPKT,0,DTMS,1001,DTIN,14,22,DTOUT,100,978,HATMD,71*2E
$PGLOR,0,HLA,102437.00,L,,Al,,A,21,H,,,M,,Ac,0,Gr,0,S,,,Sx,,,T,0,Tr,,Mn,0*06
$PGLOR,3,PWR,mA,26.9,RFTm,1001,OscTm,1000,MeasTm,1000,UTC,102437.00*38
$GPGSV,3,1,11,28,86,203,29,30,56,030,29,05,39,263,25,13,35,319,25*7A
$GPGSV,3,2,11,07,34,061,36,09,21,131,34,17,20,158,31,20,14,309,14*76
$GPGSV,3,3,11,08,10,044,18,11,00,088,12,19,00,182,11*49
$GLGSV,3,1,09,73,46,012,27,83,17,095,31,71,63,223,29,74,43,292,24*6D
$GLGSV,3,2,09,72,41,317,24,70,21,174,23,82,10,042,,75,04,256,*63
$GLGSV,3,3,09,84,03,144,*52
$GPGSA,A,3,05,07,08,09,13,17,20,28,30,,,,1.2,0.9,0.8*3C
$GNGSA,A,3,05,07,08,09,13,17,20,28,30,,,,1.2,0.9,0.8*22
$GNGSA,A,3,,,,,,,,,,,,,1.2,0.9,0.8*2E
$QZGSA,A,3,,,,,,,,,,,,,1.2,0.9,0.8*2C
$IMGSA,A,3,,,,,,,,,,,,,1.2,0.9,0.8*23
$PGLOR,1,FIX,1.0,1.0*20
$GPRMC,102437.00,A,3205.934990,N,03448.593120,E,002.0,,050416,,,A*7A
$PGLOR,SPL,20160405132434.5,POS,20160405102436.999,32.098917,34.809885,4,4,0,22,3,1.100000
$GPGGA,102438.00,3205.934572,N,03448.593499,E,1,09,0.6,2.5,M,19.2,M,,*68
$PGLOR,5,STA,102438.00,-0.040,0.000,179,1,6,1,P,F,L,0,C,3,S,0012,27,5,R,33F4,TPeF,13,72,LC,,*6E
$PGLOR,1,UNC,102438.00,0.012,6.0,3.0,0.21,5.99,5.3,2.9,49.3*12
$PGLOR,2,SAT,3,1,G28,025,1F,G30,029,1F,R09,022,10,G05,023,1F,G13,018,1B,G07,038,1F*58
$PGLOR,2,SAT,3,2,G09,028,1F,G17,027,1F,R19,028,13,G20,013,1F,G08,015,1F,G11,007,10*2C
$PGLOR,2,SAT,3,3,G19,007,10,R07,019,3,R10,022,3,R08,017,3,R06,018,3*68
$PGLOR,2,SIO,TxERR,0,RxERR,0,TxCNT,372,RxCNT,4016,MLFRMPKT,0,DTMS,1000,DTIN,18,27,DTOUT,100,973,HATMD,71*27
$PGLOR,0,HLA,102438.00,L,,Al,,A,21,H,,,M,,Ac,0,Gr,0,S,,,Sx,,,T,0,Tr,,Mn,0*09
$PGLOR,3,PWR,mA,26.9,RFTm,999,OscTm,1000,MeasTm,1000,UTC,102438.00*0E
$GPGSV,3,1,11,28,86,203,28,30,56,030,29,05,39,263,25,13,35,319,24*7A
$GPGSV,3,2,11,07,34,061,38,09,21,131,34,17,20,158,31,20,14,309,14*78
$GPGSV,3,3,11,08,10,044,18,11,00,088,12,19,00,182,11*49
$GLGSV,3,1,09,73,46,012,26,83,17,095,31,71,63,223,28,74,43,292,24*6D
$GLGSV,3,2,09,72,41,317,23,70,21,174,22,82,10,042,,75,04,256,*65
$GLGSV,3,3,09,84,03,144,*52
$GPGSA,A,3,05,07,08,09,13,17,20,28,30,,,,1.2,0.9,0.8*3C
$GNGSA,A,3,05,07,08,09,13,17,20,28,30,,,,1.2,0.9,0.8*22
$GNGSA,A,3,,,,,,,,,,,,,1.2,0.9,0.8*2E
$QZGSA,A,3,,,,,,,,,,,,,1.2,0.9,0.8*2C
$IMGSA,A,3,,,,,,,,,,,,,1.2,0.9,0.8*23
$PGLOR,1,FIX,1.0,1.0*20
$GPRMC,102438.00,A,3205.934572,N,03448.593499,E,002.4,,050416,,,A*76
$PGLOR,SPL,20160405132435.5,POS,20160405102437.999,32.098910,34.809892,6,6,0,22,3,1.100000
$GPGGA,102439.00,3205.934572,N,03448.593499,E,1,09,0.6,2.5,M,19.2,M,,*69
$PGLOR,5,STA,102439.00,-0.040,0.000,179,1,6,0,P,F,L,0,C,3,S,0012,27,5,R,33F4,TPeF,13,73,LC,,*6F
$PGLOR,1,UNC,102439.00,0.012,6.0,3.0,0.19,180.00,4.8,3.5,43.2*18
$PGLOR,2,SAT,3,1,G28,029,1F,G30,034,1F,R09,025,13,G05,025,1F,G13,017,1B,G07,039,1F*54
$PGLOR,2,SAT,3,2,G09,028,1F,G17,025,1F,R19,028,13,G20,013,1F,G08,017,1F,G11,007,10*2C
$PGLOR,2,SAT,3,3,G19,007,10,R07,017,3,R10,021,3,R08,017,3,R06,014,3*69
$PGLOR,2,SIO,TxERR,0,RxERR,0,TxCNT,308,RxCNT,4024,MLFRMPKT,0,DTMS,1000,DTIN,16,30,DTOUT,100,970,HATMD,71*20
$PGLOR,0,HLA,102439.00,L,,Al,,A,21,H,,,M,,Ac,0,Gr,0,S,,,Sx,,,T,0,Tr,,Mn,0*08
$PGLOR,3,PWR,mA,26.9,RFTm,1001,OscTm,1000,MeasTm,1000,UTC,102439.00*36
$GPGSV,3,1,11,28,86,203,29,30,56,030,34,05,39,263,25,13,35,319,23*70
$GPGSV,3,2,11,07,34,061,39,09,21,131,33,17,20,158,30,20,14,309,14*7F
$GPGSV,3,3,11,08,10,044,18,11,00,088,11,19,00,182,10*4B
$GLGSV,3,1,09,73,46,012,26,83,17,095,30,71,63,223,27,74,43,292,24*63
$GLGSV,3,2,09,72,41,317,22,70,21,174,21,82,10,042,,75,04,256,*67
$GLGSV,3,3,09,84,03,144,*52
$GPGSA,A,3,05,07,08,09,13,17,20,28,30,,,,1.2,0.9,0.8*3C
$GNGSA,A,3,05,07,08,09,13,17,20,28,30,,,,1.2,0.9,0.8*22
$GNGSA,A,3,,,,,,,,,,,,,1.2,0.9,0.8*2E
$QZGSA,A,3,,,,,,,,,,,,,1.2,0.9,0.8*2C
$IMGSA,A,3,,,,,,,,,,,,,1.2,0.9,0.8*23
$PGLOR,1,FIX,1.0,1.0*20
$GPRMC,102439.00,A,3205.934572,N,03448.593499,E,000.0,,050416,,,A*71
$PGLOR,SPL,20160405132436.5,POS,20160405102438.999,32.098910,34.809892,6,6,0,22,3,1.100000
$GPGGA,102440.00,3205.934010,N,03448.594343,E,1,09,0.6,2.5,M,19.2,M,,*61
$PGLOR,5,STA,102440.00,-0.040,0.000,179,1,6,1,P,F,L,0,C,3,S,0012,28,5,R,33F4,TPeF,13,74,LC,,*68
$PGLOR,1,UNC,102440.00,0.012,6.0,3.0,0.18,6.52,5.3,2.9,37.5*1C
$PGLOR,2,SAT,3,1,G28,028,1F,G30,037,1F,R09,029,13,G05,025,1F,G13,016,1B,G07,038,1F*5A
$PGLOR,2,SAT,3,2,G09,024,1F,G17,028,1F,R19,027,13,G20,014,1F,G08,025,1F,G11,008,10*2B
$PGLOR,2,SAT,3,3,G19,007,10,R07,021,3,R10,021,3,R08,025,3,R06,009,0*62
$PGLOR,2,SIO,TxERR,0,RxERR,0,TxCNT,342,RxCNT,3976,MLFRMPKT,0,DTMS,1000,DTIN,27,33,DTOUT,101,966,HATMD,71*20
$PGLOR,0,HLA,102440.00,L,,Al,,A,21,H,,,M,,Ac,0,Gr,0,S,,,Sx,,,T,0,Tr,,Mn,0*06
$PGLOR,3,PWR,mA,26.9,RFTm,999,OscTm,1000,MeasTm,1000,UTC,102440.00*01
$GPGSV,3,1,11,28,86,203,29,30,56,030,37,05,39,263,25,13,35,319,22*72
$GPGSV,3,2,11,07,34,061,39,09,21,131,32,17,20,158,30,20,14,309,14*7E
$GPGSV,3,3,11,08,10,044,25,11,00,088,11,19,00,182,10*45
$GLGSV,3,1,09,73,46,012,29,83,17,095,30,71,63,223,26,74,43,292,23*6A
$GLGSV,3,2,09,72,41,317,25,70,21,174,20,82,10,042,,75,04,256,*61
$GLGSV,3,3,09,84,03,144,*52
$GPGSA,A,3,05,07,08,09,13,17,20,28,30,,,,1.2,0.9,0.8*3C
$GNGSA,A,3,05,07,08,09,13,17,20,28,30,,,,1.2,0.9,0.8*22
$GNGSA,A,3,,,,,,,,,,,,,1.2,0.9,0.8*2E
$QZGSA,A,3,,,,,,,,,,,,,1.2,0.9,0.8*2C
$IMGSA,A,3,,,,,,,,,,,,,1.2,0.9,0.8*23
$PGLOR,1,FIX,1.0,1.0*20
$GPRMC,102440.00,A,3205.934010,N,03448.594343,E,002.2,,050416,,,A*79
$PGLOR,SPL,20160405132437.5,POS,20160405102439.999,32.098900,34.809906,6,6,0,22,3,1.100000
$GPGGA,102441.00,3205.934010,N,03448.594343,E,1,09,0.6,2.4,M,19.2,M,,*61
$PGLOR,5,STA,102441.00,-0.040,0.000,179,1,6,0,P,F,L,0,C,3,S,0012,28,5,R,33F4,TPeF,13,75,LC,,*69
$PGLOR,1,UNC,102441.00,0.012,6.0,3.0,0.16,180.00,4.9,3.4,33.5*18
$PGLOR,2,SAT,3,1,G28,029,1F,G30,038,1F,R09,029,13,G05,025,1F,G13,015,1B,G07,040,1F*58
$PGLOR,2,SAT,3,2,G09,028,1F,G17,029,1F,R19,031,13,G20,013,1B,G08,024,1F,G11,007,10*2C
$PGLOR,2,SAT,3,3,G19,007,10,R07,022,3,R10,025,3,R08,030,3,R06,013,3*69
$PGLOR,2,SIO,TxERR,0,RxERR,0,TxCNT,417,RxCNT,4015,MLFRMPKT,0,DTMS,1000,DTIN,19,33,DTOUT,101,967,HATMD,71*20
$PGLOR,0,HLA,102441.00,L,,Al,,A,21,H,,,M,,Ac,0,Gr,0,S,,,Sx,,,T,0,Tr,,Mn,0*07
$PGLOR,3,PWR,mA,26.9,RFTm,1000,OscTm,1000,MeasTm,1000,UTC,102441.00*38
$GPGSV,3,1,11,28,86,203,29,30,56,030,38,05,39,263,25,13,35,319,22*7D
$GPGSV,3,2,11,07,34,061,40,09,21,131,32,17,20,158,30,20,14,309,14*70
$GPGSV,3,3,11,08,10,044,25,11,00,088,11,19,00,182,10*45
$GLGSV,3,1,09,73,46,012,29,83,17,095,31,71,63,223,26,74,43,292,25*6D
$GLGSV,3,2,09,72,41,317,30,70,21,174,19,82,10,042,,75,04,256,*6F
$GLGSV,3,3,09,84,03,144,*52
$GPGSA,A,3,05,07,08,09,13,17,20,28,30,,,,1.4,1.1,0.9*32
$GNGSA,A,3,05,07,08,09,13,17,20,28,30,,,,1.4,1.1,0.9*2C
$GNGSA,A,3,,,,,,,,,,,,,1.4,1.1,0.9*20
$QZGSA,A,3,,,,,,,,,,,,,1.4,1.1,0.9*22
$IMGSA,A,3,,,,,,,,,,,,,1.4,1.1,0.9*2D
$PGLOR,1,FIX,1.0,1.0*20
$GPRMC,102441.00,A,3205.934010,N,03448.594343,E,000.0,,050416,,,A*78
$PGLOR,SPL,20160405132438.5,POS,20160405102440.999,32.098900,34.809906,6,6,0,22,3,1.100000
$GPGGA,102442.00,3205.934010,N,03448.594343,E,1,09,0.8,2.4,M,19.2,M,,*6C
$PGLOR,5,STA,102442.00,-0.040,0.000,179,1,8,0,P,F,L,0,C,3,S,0012,28,5,R,33F4,TPeF,13,76,LC,,*67
$PGLOR,1,UNC,102442.00,0.012,8.0,3.0,0.18,7.21,7.0,3.9,39.9*17
$PGLOR,2,SAT,3,1,G28,029,1F,G30,037,1F,R09,028,13,G05,023,1F,G13,015,1B,G07,040,1F*50
$PGLOR,2,SAT,3,2,G09,029,1F,G17,026,1F,R19,030,13,G20,013,1F,G08,026,1F,G11,007,10*25
$PGLOR,2,SAT,3,3,G19,007,10,R07,025,3,R10,024,3,R08,031,3,R06,021,3*6F
$PGLOR,2,SIO,TxERR,0,RxERR,0,TxCNT,383,RxCNT,4020,MLFRMPKT,0,DTMS,999,DTIN,31,38,DTOUT,101,961,HATMD,70*12
$PGLOR,0,HLA,102442.00,L,,Al,,A,21,H,,,M,,Ac,0,Gr,0,S,,,Sx,,,T,0,Tr,,Mn,0*04
$PGLOR,3,PWR,mA,26.9,RFTm,1000,OscTm,1000,MeasTm,1000,UTC,102442.00*3B
$GPGSV,3,1,11,28,86,203,29,30,56,030,38,05,39,263,25,13,35,319,21*7E
$GPGSV,3,2,11,07,34,061,40,09,21,131,31,17,20,158,30,20,14,309,14*73
$GPGSV,3,3,11,08,10,044,26,11,00,088,10,19,00,182,10*47
$GLGSV,3,1,09,73,46,012,29,83,17,095,31,71,63,223,26,74,43,292,25*6D
$GLGSV,3,2,09,72,41,317,31,70,21,174,21,82,10,042,,75,04,256,*65
$GLGSV,3,3,09,84,03,144,*52
$GPGSA,A,3,05,07,08,09,13,17,20,28,30,,,,1.2,0.9,0.8*3C
$GNGSA,A,3,05,07,08,09,13,17,20,28,30,,,,1.2,0.9,0.8*22
$GNGSA,A,3,,,,,,,,,,,,,1.2,0.9,0.8*2E
$QZGSA,A,3,,,,,,,,,,,,,1.2,0.9,0.8*2C
$IMGSA,A,3,,,,,,,,,,,,,1.2,0.9,0.8*23
$PGLOR,1,FIX,1.0,1.0*20
$GPRMC,102442.00,A,3205.934010,N,03448.594343,E,000.0,,050416,,,A*7B
$PGLOR,SPL,20160405132439.5,POS,20160405102441.999,32.098900,34.809906,8,8,0,22,3,1.100000
$GPGGA,102443.00,3205.934010,N,03448.594343,E,1,09,0.8,2.3,M,19.2,M,,*6A
$PGLOR,5,STA,102443.00,-0.040,0.000,180,1,8,0,P,F,L,0,C,3,S,0012,28,5,R,33F4,TPeF,13,77,LC,,*61
$PGLOR,1,UNC,102443.00,0.013,8.0,3.0,0.35,9.55,7.1,3.7,40.2*1F
$PGLOR,2,SAT,3,1,G28,029,1F,G30,036,1F,R09,024,13,G05,020,1F,G13,016,1B,G07,040,1F*5D
$PGLOR,2,SAT,3,2,G09,024,1F,G17,024,1F,R19,031,13,G20,013,1F,G08,023,1F,G11,007,10*2E
$PGLOR,2,SAT,3,3,G19,007,10,R07,027,3,R10,023,3,R08,033,3,R06,020,3*69
$PGLOR,2,SIO,TxERR,0,RxERR,0,TxCNT,311,RxCNT,4032,MLFRMPKT,0,DTMS,1001,DTIN,7,19,DTOUT,100,981,HATMD,71*1B
$PGLOR,0,HLA,102443.00,L,,Al,,A,21,H,,,M,,Ac,0,Gr,0,S,,,Sx,,,T,0,Tr,,Mn,0*05
$PGLOR,3,PWR,mA,26.9,RFTm,1000,OscTm,1000,MeasTm,1000,UTC,102443.00*3A
$GPGSV,3,1,11,28,86,203,29,30,56,030,38,05,39,263,24,13,35,319,21*7F
$GPGSV,3,2,11,07,34,061,40,09,21,131,31,17,20,158,29,20,14,309,14*7B
$GPGSV,3,3,11,08,10,044,26,11,00,088,10,19,00,182,09*4F
$GLGSV,3,1,09,73,46,012,29,83,17,095,31,71,63,223,27,74,43,292,25*6C
$GLGSV,3,2,09,72,41,317,33,70,21,174,21,82,10,042,,75,04,256,*67
$GLGSV,3,3,09,84,03,144,*52
$GPGSA,A,3,05,07,08,09,13,17,20,28,30,,,,1.2,0.9,0.8*3C
$GNGSA,A,3,05,07,08,09,13,17,20,28,30,,,,1.2,0.9,0.8*22
$GNGSA,A,3,,,,,,,,,,,,,1.2,0.9,0.8*2E
$QZGSA,A,3,,,,,,,,,,,,,1.2,0.9,0.8*2C
$IMGSA,A,3,,,,,,,,,,,,,1.2,0.9,0.8*23
$PGLOR,1,FIX,1.0,1.0*20
$GPRMC,102443.00,A,3205.934010,N,03448.594343,E,000.0,,050416,,,A*7A
$PGLOR,SPL,20160405132440.5,POS,20160405102442.999,32.098900,34.809906,8,8,0,22,3,1.100000
$GPGGA,102444.00,3205.934010,N,03448.594343,E,1,09,0.6,2.3,M,19.2,M,,*63
$PGLOR,5,STA,102444.00,-0.040,0.000,179,1,6,0,P,F,L,0,C,3,S,0012,28,5,R,33F4,TPeF,13,78,LC,,*61
$PGLOR,1,UNC,102444.00,0.013,6.0,3.0,0.21,7.56,5.4,2.7,37.1*1B
$PGLOR,2,SAT,3,1,G28,029,1F,G30,035,1F,R09,019,13,G05,024,1F,G13,014,1B,G07,042,1F*54
$PGLOR,2,SAT,3,2,G09,020,1F,G17,027,1F,R19,032,13,G20,015,1F,G08,025,1F,G11,007,10*2A
$PGLOR,2,SAT,3,3,G19,007,10,R07,023,3,R10,025,3,R08,033,3,R06,021,3*6A
$PGLOR,2,SIO,TxERR,0,RxERR,0,TxCNT,340,RxCNT,3997,MLFRMPKT,0,DTMS,1000,DTIN,21,29,DTOUT,100,969,HATMD,71*2E
$PGLOR,0,HLA,102444.00,L,,Al,,A,21,H,,,M,,Ac,0,Gr,0,S,,,Sx,,,T,0,Tr,,Mn,0*02
$PGLOR,3,PWR,mA,26.9,RFTm,1000,OscTm,1000,MeasTm,1000,UTC,102444.00*3D
$GPGSV,3,1,11,28,86,203,29,30,56,030,38,05,39,263,24,13,35,319,20*7E
$GPGSV,3,2,11,07,34,061,42,09,21,131,30,17,20,158,29,20,14,309,15*79
$GPGSV,3,3,11,08,10,044,26,11,00,088,10,19,00,182,09*4F
$GLGSV,3,1,09,73,46,012,28,83,17,095,32,71,63,223,26,74,43,292,25*6F
$GLGSV,3,2,09,72,41,317,33,70,21,174,21,82,10,042,,75,04,256,*67
$GLGSV,3,3,09,84,03,144,*52
$GPGSA,A,3,05,07,08,09,13,17,20,28,30,,,,1.2,0.9,0.8*3C
$GNGSA,A,3,05,07,08,09,13,17,20,28,30,,,,1.2,0.9,0.8*22
$GNGSA,A,3,,,,,,,,,,,,,1.2,0.9,0.8*2E
$QZGSA,A,3,,,,,,,,,,,,,1.2,0.9,0.8*2C
$IMGSA,A,3,,,,,,,,,,,,,1.2,0.9,0.8*23
$PGLOR,1,FIX,1.0,1.0*20
$GPRMC,102444.00,A,3205.934010,N,03448.594343,E,000.0,,050416,,,A*7D
$PGLOR,SPL,20160405132441.5,POS,20160405102443.999,32.098900,34.809906,6,6,0,21,3,1.100000
$GPGGA,102445.00,3205.934010,N,03448.594343,E,1,09,0.6,2.2,M,19.2,M,,*63
$PGLOR,5,STA,102445.00,-0.040,0.000,180,1,6,0,P,F,L,0,C,3,S,0012,28,5,R,33F4,TPeF,13,79,LC,,*67
$PGLOR,1,UNC,102445.00,0.012,6.0,3.0,0.19,180.00,5.0,3.3,35.0*1F
$PGLOR,2,SAT,3,1,G28,029,1F,G30,036,1F,R09,015,10,G05,025,1F,G13,018,1B,G07,042,1F*55
$PGLOR,2,SAT,3,2,G09,022,1F,G17,028,1F,R19,032,13,G20,019,1B,G08,024,1F,G11,007,10*2E
$PGLOR,2,SAT,3,3,G19,017,10,R07,020,3,R10,025,3,R08,032,3,R06,020,3*68
$PGLOR,2,SIO,TxERR,0,RxERR,0,TxCNT,319,RxCNT,4031,MLFRMPKT,0,DTMS,1000,DTIN,27,42,DTOUT,100,955,HATMD,71*24
$PGLOR,0,HLA,102445.00,L,,Al,,A,21,H,,,M,,Ac,0,Gr,0,S,,,Sx,,,T,0,Tr,,Mn,0*03
$PGLOR,3,PWR,mA,26.9,RFTm,999,OscTm,1000,MeasTm,1000,UTC,102445.00*04
$GPGSV,3,1,11,28,86,203,29,30,56,030,37,05,39,263,25,13,35,319,20*70
$GPGSV,3,2,11,07,34,061,42,09,21,131,29,17,20,158,29,20,14,309,19*7D
$GPGSV,3,3,11,08,10,044,25,11,00,088,09,19,00,182,17*4B
$GLGSV,3,1,09,73,46,012,26,83,17,095,32,71,63,223,26,74,43,292,25*61
$GLGSV,3,2,09,72,41,317,33,70,21,174,21,82,10,042,,75,04,256,*67
$GLGSV,3,3,09,84,03,144,*52
$GPGSA,A,3,05,07,08,09,13,17,20,28,30,,,,1.4,1.1,0.9*32
$GNGSA,A,3,05,07,08,09,13,17,20,28,30,,,,1.4,1.1,0.9*2C
$GNGSA,A,3,,,,,,,,,,,,,1.4,1.1,0.9*20
$QZGSA,A,3,,,,,,,,,,,,,1.4,1.1,0.9*22
$IMGSA,A,3,,,,,,,,,,,,,1.4,1.1,0.9*2D
$PGLOR,1,FIX,1.0,1.0*20
$GPRMC,102445.00,A,3205.934010,N,03448.594343,E,000.0,,050416,,,A*7C
$PGLOR,SPL,20160405132442.5,POS,20160405102444.999,32.098900,34.809906,6,6,0,21,3,1.100000
$GPGGA,102446.00,3205.932447,N,03448.598421,E,1,09,0.8,2.2,M,19.2,M,,*61
$PGLOR,5,STA,102446.00,-0.040,0.000,180,1,8,1,P,F,L,0,C,3,S,0012,35,5,R,33F4,TPeF,14,80,LC,,*66
$PGLOR,1,UNC,102446.00,0.012,8.0,3.0,0.19,7.54,7.1,3.7,29.0*17
$PGLOR,2,SAT,3,1,G28,031,1F,G30,035,1F,R09,017,13,G05,023,1F,G13,021,1B,G07,042,1F*52
$PGLOR,2,SAT,3,2,G09,021,1F,G17,028,1F,R19,032,13,G20,019,1B,G08,022,1F,G11,008,10*24
$PGLOR,2,SAT,3,3,G19,011,10,R07,024,3,R10,025,3,R08,033,3,R06,021,3*6A
$PGLOR,2,SIO,TxERR,0,RxERR,0,TxCNT,461,RxCNT,3983,MLFRMPKT,0,DTMS,1000,DTIN,42,59,DTOUT,100,939,HATMD,71*28
$PGLOR,0,HLA,102446.00,L,,Al,,A,21,H,,,M,,Ac,0,Gr,0,S,,,Sx,,,T,0,Tr,,Mn,0*00
$PGLOR,3,PWR,mA,26.9,RFTm,1000,OscTm,1000,MeasTm,1000,UTC,102446.00*3F
$GPGSV,3,1,12,28,86,203,31,30,56,030,37,05,39,263,25,13,35,319,21*7B
$GPGSV,3,2,12,07,34,061,42,09,21,131,28,17,20,158,29,20,14,309,19*7F
$GPGSV,3,3,12,08,10,044,25,11,00,088,09,19,00,182,16,15,00,315,*7A
$GLGSV,3,1,09,73,46,013,25,83,17,095,32,71,63,223,26,74,43,292,25*63
$GLGSV,3,2,09,72,41,316,33,70,21,174,21,82,10,042,,75,04,256,*66
$GLGSV,3,3,09,84,03,144,*52
$GPGSA,A,3,05,07,08,09,13,17,20,28,30,,,,1.4,1.1,0.9*32
$GNGSA,A,3,05,07,08,09,13,17,20,28,30,,,,1.4,1.1,0.9*2C
$GNGSA,A,3,,,,,,,,,,,,,1.4,1.1,0.9*20
$QZGSA,A,3,,,,,,,,,,,,,1.4,1.1,0.9*22
$IMGSA,A,3,,,,,,,,,,,,,1.4,1.1,0.9*2D
$PGLOR,1,FIX,1.0,1.0*20
$GPRMC,102446.00,A,3205.932447,N,03448.598421,E,002.1,,050416,,,A*73
$PGLOR,SPL,20160405132443.5,POS,20160405102445.999,32.098874,34.809974,8,8,0,21,3,1.100000
$GPGGA,102447.00,3205.932244,N,03448.599130,E,1,09,0.6,2.2,M,19.2,M,,*6F
$PGLOR,5,STA,102447.00,-0.040,0.000,180,1,6,1,P,F,L,0,C,3,S,0012,36,5,R,33F4,TPeF,14,81,LC,,*6B
$PGLOR,1,UNC,102447.00,0.013,6.0,3.0,0.29,8.88,5.4,2.6,27.4*19
$PGLOR,2,SAT,3,1,G28,033,1F,G30,034,1F,R09,016,13,G05,022,1F,G13,020,1F,G07,041,1F*57
$PGLOR,2,SAT,3,2,G09,020,1F,G17,027,1F,R19,030,13,G20,016,1B,G08,020,1F,G11,013,10*2F
$PGLOR,2,SAT,3,3,G19,010,10,R07,025,3,R10,025,3,R08,031,3,R06,022,3*6B
$PGLOR,2,SIO,TxERR,0,RxERR,0,TxCNT,308,RxCNT,4065,MLFRMPKT,0,DTMS,999,DTIN,40,52,DTOUT,101,948,HATMD,70*11
$PGLOR,0,HLA,102447.00,L,,Al,,A,21,H,,,M,,Ac,0,Gr,0,S,,,Sx,,,T,0,Tr,,Mn,0*01
