$GPGSV,3,1,12,01,65,192,33,03,58,344,36,09,20,250,34,11,37,194,38*70
$GPGSV,3,2,12,17,13,286,34,19,05,312,18,22,60,063,22,23,51,267,34*72
$GPGSV,3,3,12,31,29,049,28,33,,,31,16,,,,26,05,105,*74
$GLGSV,2,1,08,78,19,160,24,66,17,068,17,82,34,233,27,77,45,099,28*67
$GLGSV,2,2,08,83,30,300,35,81,06,189,21,67,47,014,22,68,27,305,37*62
$GPGGA,,,,,,0,,,,,,,,*66
$GPVTG,,T,,M,,N,,K,N*2C
$GPRMC,,V,,,,,,,,,,N*53
$GPGSA,A,1,,,,,,,,,,,,,,,*1E
$GNGSA,A,1,,,,,,,,,,,,,,,*00
$GPGSV,3,1,11,01,63,191,,03,59,345,,09,21,251,,11,36,192,*78
$GPGSV,3,2,11,16,00,132,,17,13,285,,19,05,310,,22,59,066,*77
$GPGSV,3,3,11,23,52,270,,26,06,104,,31,28,047,*46
$GLGSV,2,1,08,78,21,158,,66,16,071,,82,32,232,,77,45,097,*68
$GLGSV,2,2,08,83,31,299,,81,04,189,,67,47,016,,68,28,307,*6E
$GPGGA,,,,,,0,,,,,,,,*66
$GPVTG,,T,,M,,N,,K,N*2C
$GPRMC,,V,,,,,,,,,,N*53
$GPGSA,A,1,,,,,,,,,,,,,,,*1E
$GNGSA,A,1,,,,,,,,,,,,,,,*00
$GPGSV,3,1,11,23,52,270,28,01,63,191,,03,59,345,,09,21,251,*7E
$GPGSV,3,2,11,11,36,192,,16,00,132,,17,13,285,,19,05,310,*74
$GPGSV,3,3,11,22,59,066,,26,06,104,,31,28,047,*49
$GLGSV,2,1,08,82,32,232,24,83,31,299,22,68,28,307,24,78,21,158,*6D
$GLGSV,2,2,08,66,16,071,,77,45,097,,81,04,189,,67,47,016,*6B
$GPGGA,,,,,,0,,,,,,,,*66
$GPVTG,,T,,M,,N,,K,N*2C
$GPRMC,,V,,,,,,,,,,N*53
$GPGSA,A,1,,,,,,,,,,,,,,,*1E
$GNGSA,A,1,,,,,,,,,,,,,,,*00
$GPGSV,3,1,11,01,63,191,28,09,21,251,23,11,36,192,21,23,52,270,29*75
$GPGSV,3,2,11,26,06,104,22,31,28,047,28,03,59,345,,16,00,132,*74
$GPGSV,3,3,11,17,13,285,,19,05,310,,22,59,066,*41
$GLGSV,2,1,08,66,16,071,26,82,32,232,25,83,31,299,20,68,28,307,18*64
$GLGSV,2,2,08,78,21,158,,77,45,097,,81,04,189,,67,47,016,*6A
$GPGGA,,,,,,0,,,,,,,,*66
$GPVTG,,T,,M,,N,,K,N*2C
$GPRMC,,V,,,,,,,,,,N*53
$GPGSA,A,1,,,,,,,,,,,,,,,*1E
$GNGSA,A,1,,,,,,,,,,,,,,,*00
$GPGSV,3,1,11,01,63,191,28,09,21,251,23,11,36,192,21,23,52,270,29*75
$GPGSV,3,2,11,26,06,104,22,31,28,047,28,03,59,345,,16,00,132,*74
$GPGSV,3,3,11,17,13,285,,19,05,310,,22,59,066,*41
$GLGSV,2,1,08,66,16,071,26,82,32,232,25,83,31,299,20,68,28,307,18*64
$GLGSV,2,2,08,78,21,158,,77,45,097,,81,04,189,,67,47,016,*6A
$GPGGA,,,,,,0,,,,,,,,*66
$GPVTG,,T,,M,,N,,K,N*2C
$GPRMC,,V,,,,,,,,,,N*53
$GPGSA,A,1,,,,,,,,,,,,,,,*1E
$GNGSA,A,1,,,,,,,,,,,,,,,*00
$GPGSV,3,1,11,01,63,191,28,09,21,251,17,11,36,192,20,22,59,066,20*75
$GPGSV,3,2,11,23,52,270,30,26,06,104,22,31,28,047,27,03,59,345,*7C
$GPGSV,3,3,11,16,00,132,,17,13,285,,19,05,310,*4A
$GLGSV,2,1,08,66,16,071,24,82,32,230,26,83,31,299,20,67,47,016,24*6D
$GLGSV,2,2,08,68,28,307,17,78,21,158,,77,45,097,,81,04,189,*69
$GPGGA,034808.0,3206.850087,N,03501.868442,E,1,07,0.9,212.5,M,19.0,M,,*5F
$GPVTG,269.5,T,266.5,M,41.7,N,77.2,K,A*2C
$GPRMC,034808.0,A,3206.850087,N,03501.868442,E,41.7,269.5,120416,3.0,E,A*3D
$GPGSA,A,2,01,09,11,22,23,26,31,,,,,,1.2,0.9,0.8*3E
$GNGSA,A,2,01,09,11,22,23,26,31,,,,,,1.2,0.9,0.8*20
$GNGSA,A,2,66,67,68,82,83,,,,,,,,1.2,0.9,0.8*21
$GPGSV,3,1,11,01,63,191,27,09,21,251,20,11,36,192,19,17,13,285,17*77
$GPGSV,3,2,11,22,59,066,20,23,52,270,30,26,06,104,21,31,28,047,25*7E
$GPGSV,3,3,11,03,59,345,,16,00,132,,19,05,310,*4C
$GLGSV,2,1,08,78,21,158,18,66,16,071,24,82,32,230,25,83,31,299,20*64
$GLGSV,2,2,08,67,47,016,26,68,28,307,17,77,45,097,,81,04,189,*68
$GPGGA,034809.0,3206.850239,N,03501.854830,E,1,08,0.7,201.6,M,19.0,M,,*5F
$GPVTG,269.0,T,266.0,M,40.4,N,74.9,K,A*26
$GPRMC,034809.0,A,3206.850239,N,03501.854830,E,40.4,269.0,120416,3.0,E,A*3A
$GPGSA,A,2,01,09,11,17,22,23,26,31,,,,,1.0,0.7,0.8*34
$GNGSA,A,2,01,09,11,17,22,23,26,31,,,,,1.0,0.7,0.8*2A
$GNGSA,A,2,66,67,68,78,82,83,,,,,,,1.0,0.7,0.8*22
$GPGSV,3,1,11,01,63,191,28,09,21,251,17,11,36,192,17,17,13,285,16*73
$GPGSV,3,2,11,22,59,066,20,23,52,270,27,26,06,104,20,31,28,047,23*7F
$GPGSV,3,3,11,03,59,345,,16,00,132,,19,05,310,*4C
$GLGSV,2,1,08,78,21,158,18,66,16,071,24,82,32,230,26,77,45,097,17*67
$GLGSV,2,2,08,83,31,299,20,67,47,016,24,68,28,307,16,81,04,189,*6D
$GPGGA,034810.0,3206.850879,N,03501.842937,E,1,08,0.7,210.3,M,19.0,M,,*5D
$GPVTG,269.3,T,266.3,M,39.9,N,73.8,K,A*23
$GPRMC,034810.0,A,3206.850879,N,03501.842937,E,39.9,269.3,120416,3.0,E,A*3D
$GPGSA,A,2,01,09,11,17,22,23,26,31,,,,,1.0,0.7,0.8*34
$GNGSA,A,2,01,09,11,17,22,23,26,31,,,,,1.0,0.7,0.8*2A
$GNGSA,A,2,66,67,68,77,78,82,83,,,,,,1.0,0.7,0.8*22
$GPGSV,3,1,11,01,63,191,26,03,59,345,15,09,21,251,19,11,36,192,20*72
$GPGSV,3,2,11,17,13,285,16,19,05,310,18,22,59,066,20,23,52,270,28*75
$GPGSV,3,3,11,26,06,104,21,31,28,047,24,16,00,132,*47
$GLGSV,2,1,08,78,21,158,17,66,16,071,22,82,32,230,29,77,45,097,17*61
$GLGSV,2,2,08,83,31,299,17,67,47,016,25,68,28,307,16,81,04,189,*68
$GPGGA,034811.0,3206.850778,N,03501.831997,E,1,10,0.6,219.4,M,19.0,M,,*5A
$GPVTG,269.2,T,266.3,M,39.8,N,73.6,K,A*2D
$GPRMC,034811.0,A,3206.850778,N,03501.831997,E,39.8,269.2,120416,3.0,E,A*3C
$GPGSA,A,2,01,03,09,11,17,19,22,23,26,31,,,0.9,0.6,0.7*39
$GNGSA,A,2,01,03,09,11,17,19,22,23,26,31,,,0.9,0.6,0.7*27
$GNGSA,A,2,66,67,68,77,78,82,83,,,,,,0.9,0.6,0.7*24
$GPGSV,3,1,11,01,63,191,26,03,59,345,15,09,21,251,19,11,36,192,18*79
$GPGSV,3,2,11,17,13,285,15,19,05,310,19,22,59,066,19,23,52,270,27*72
$GPGSV,3,3,11,26,06,104,22,31,28,047,24,16,00,132,*44
$GLGSV,2,1,08,78,21,158,16,66,16,071,22,82,32,230,29,77,45,097,18*6F
$GLGSV,2,2,08,83,31,299,18,67,47,016,26,68,28,307,16,81,04,189,*64
$GPGGA,034812.0,3206.850832,N,03501.821342,E,1,10,0.6,221.0,M,19.0,M,,*54
$GPVTG,269.6,T,266.6,M,39.0,N,72.2,K,A*21
$GPRMC,034812.0,A,3206.850832,N,03501.821342,E,39.0,269.6,120416,3.0,E,A*31
$GPGSA,A,2,01,03,09,11,17,19,22,23,26,31,,,0.9,0.6,0.7*39
$GNGSA,A,2,01,03,09,11,17,19,22,23,26,31,,,0.9,0.6,0.7*27
$GNGSA,A,2,66,67,68,77,78,82,83,,,,,,0.9,0.6,0.7*24
$GPGSV,3,1,11,01,63,191,26,03,59,345,16,09,21,251,19,11,36,192,20*71
$GPGSV,3,2,11,17,13,285,15,19,05,310,24,22,59,066,19,23,52,270,28*73
$GPGSV,3,3,11,26,06,104,21,31,28,047,25,16,00,132,*46
$GLGSV,2,1,08,78,21,158,16,66,16,071,22,82,32,230,30,77,45,097,17*68
$GLGSV,2,2,08,83,31,299,20,67,47,016,27,68,28,307,18,81,04,189,*60
$GPGGA,034813.0,3206.851087,N,03501.808490,E,1,10,0.6,223.7,M,19.0,M,,*54
$GPVTG,269.4,T,266.4,M,39.3,N,72.8,K,A*28
$GPRMC,034813.0,A,3206.851087,N,03501.808490,E,39.3,269.4,120416,3.0,E,A*35
$GPGSA,A,2,01,03,09,11,17,19,22,23,26,31,,,0.9,0.6,0.7*39
$GNGSA,A,2,01,03,09,11,17,19,22,23,26,31,,,0.9,0.6,0.7*27
$GNGSA,A,2,66,67,68,77,78,82,83,,,,,,0.9,0.6,0.7*24
$GPGSV,3,1,11,01,63,191,25,03,59,345,18,09,21,251,18,11,36,192,21*7C
$GPGSV,3,2,11,17,13,285,15,19,05,310,19,22,59,066,18,23,52,270,27*73
$GPGSV,3,3,11,26,06,104,20,31,28,047,28,16,00,132,*4A
$GLGSV,2,1,08,78,21,158,15,66,16,071,21,82,32,230,28,77,45,097,17*61
$GLGSV,2,2,08,83,31,299,19,67,47,016,27,68,28,307,24,81,04,189,*65
$GPGGA,034814.0,3206.851519,N,03501.795500,E,1,10,0.6,225.4,M,19.0,M,,*57
$GPVTG,270.4,T,267.4,M,38.8,N,71.8,K,A*28
$GPRMC,034814.0,A,3206.851519,N,03501.795500,E,38.8,270.4,120416,3.0,E,A*31
$GPGSA,A,2,01,03,09,11,17,19,22,23,26,31,,,0.9,0.6,0.7*39
$GNGSA,A,2,01,03,09,11,17,19,22,23,26,31,,,0.9,0.6,0.7*27
$GNGSA,A,2,66,67,68,77,78,82,83,,,,,,0.9,0.6,0.7*24
$GPGSV,3,1,11,01,63,191,29,03,59,345,19,09,21,251,20,11,36,192,21*7A
$GPGSV,3,2,11,17,13,285,16,19,05,310,19,22,59,066,18,23,52,270,26*71
$GPGSV,3,3,11,26,06,104,20,31,28,047,28,16,00,132,*4A
$GLGSV,2,1,08,78,21,158,15,66,16,071,18,82,32,230,31,77,45,097,17*63
$GLGSV,2,2,08,83,31,299,22,67,47,016,26,68,28,307,25,81,04,189,*6D
$GPGGA,034815.0,3206.852015,N,03501.781733,E,1,10,0.6,223.8,M,19.0,M,,*51
$GPVTG,273.0,T,270.0,M,39.1,N,72.4,K,A*2A
$GPRMC,034815.0,A,3206.852015,N,03501.781733,E,39.1,273.0,120416,3.0,E,A*32
$GPGSA,A,2,01,03,09,11,17,19,22,23,26,31,,,0.9,0.6,0.7*39
$GNGSA,A,2,01,03,09,11,17,19,22,23,26,31,,,0.9,0.6,0.7*27
$GNGSA,A,2,66,67,68,77,78,82,83,,,,,,0.9,0.6,0.7*24
$GPGSV,3,1,11,01,63,191,32,03,59,345,19,09,21,251,21,11,36,192,22*72
$GPGSV,3,2,11,17,13,285,17,19,05,310,18,22,59,066,17,23,52,270,23*7B
$GPGSV,3,3,11,26,06,104,20,31,28,047,25,16,00,132,*47
$GLGSV,2,1,08,78,21,158,15,66,16,071,20,82,32,230,28,77,45,097,17*60
$GLGSV,2,2,08,83,31,299,16,81,04,189,15,67,47,016,26,68,28,307,17*6F
$GPGGA,034816.0,3206.855283,N,03501.768255,E,1,10,0.6,221.8,M,19.0,M,,*58
$GPVTG,277.7,T,274.7,M,39.1,N,72.5,K,A*2B
$GPRMC,034816.0,A,3206.855283,N,03501.768255,E,39.1,277.7,120416,3.0,E,A*3A
$GPGSA,A,2,01,03,09,11,17,19,22,23,26,31,,,0.9,0.6,0.7*39
$GNGSA,A,2,01,03,09,11,17,19,22,23,26,31,,,0.9,0.6,0.7*27
$GNGSA,A,2,66,67,68,77,78,81,82,83,,,,,0.9,0.6,0.7*2D
$GPGSV,3,1,11,01,63,191,30,03,59,345,15,09,21,251,25,11,36,192,20*7A
$GPGSV,3,2,11,17,13,285,26,19,05,310,17,22,59,066,17,23,52,270,23*76
$GPGSV,3,3,11,26,06,104,20,31,28,047,25,16,00,132,*47
$GLGSV,2,1,08,78,21,158,14,66,16,071,24,82,32,230,28,77,45,097,17*65
$GLGSV,2,2,08,83,31,299,19,81,04,189,14,67,47,016,24,68,28,307,17*63
$GPGGA,034817.0,3206.859913,N,03501.754841,E,1,10,0.6,222.1,M,19.0,M,,*5D
$GPVTG,282.7,T,279.7,M,38.8,N,71.9,K,A*2B
$GPRMC,034817.0,A,3206.859913,N,03501.754841,E,38.8,282.7,120416,3.0,E,A*37
$GPGSA,A,2,01,03,09,11,17,19,22,23,26,31,,,0.9,0.6,0.7*39
$GNGSA,A,2,01,03,09,11,17,19,22,23,26,31,,,0.9,0.6,0.7*27
$GNGSA,A,2,66,67,68,77,78,81,82,83,,,,,0.9,0.6,0.7*2D
$GPGSV,3,1,11,01,63,191,23,03,59,345,17,09,21,251,22,11,36,192,22*7F
$GPGSV,3,2,11,17,13,285,17,19,05,310,17,22,59,066,17,23,52,270,24*73
$GPGSV,3,3,11,26,06,104,14,31,28,047,30,16,00,132,*44
$GLGSV,2,1,08,78,21,158,14,66,16,071,23,82,32,230,26,77,45,097,18*63
$GLGSV,2,2,08,83,31,299,22,81,04,189,16,67,47,016,29,68,28,307,18*6B
$GPGGA,034818.0,3206.861163,N,03501.743353,E,1,10,0.6,221.5,M,19.0,M,,*5F
$GPVTG,283.6,T,280.6,M,36.9,N,68.4,K,A*26
$GPRMC,034818.0,A,3206.861163,N,03501.743353,E,36.9,283.6,120416,3.0,E,A*3D
$GPGSA,A,2,01,03,09,11,17,19,22,23,26,31,,,0.9,0.6,0.7*39
$GNGSA,A,2,01,03,09,11,17,19,22,23,26,31,,,0.9,0.6,0.7*27
$GNGSA,A,2,66,67,68,77,78,81,82,83,,,,,0.9,0.6,0.7*2D
$GPGSV,3,1,11,01,63,191,20,03,59,345,23,09,21,251,22,11,36,192,21*78
$GPGSV,3,2,11,17,13,285,19,19,05,310,19,22,59,066,17,23,52,270,29*7E
$GPGSV,3,3,11,26,06,104,17,31,28,047,27,16,00,132,*41
$GLGSV,2,1,08,78,21,158,14,66,16,071,21,82,32,230,29,77,45,097,18*6E
$GLGSV,2,2,08,83,31,299,23,81,04,189,16,67,47,016,22,68,28,307,24*6E
$GPGGA,034819.0,3206.861454,N,03501.734204,E,1,10,0.6,220.1,M,19.0,M,,*59
$GPVTG,283.0,T,280.0,M,33.9,N,62.7,K,A*2A
$GPRMC,034819.0,A,3206.861454,N,03501.734204,E,33.9,283.0,120416,3.0,E,A*3D
$GPGSA,A,2,01,03,09,11,17,19,22,23,26,31,,,0.9,0.6,0.7*39
$GNGSA,A,2,01,03,09,11,17,19,22,23,26,31,,,0.9,0.6,0.7*27
$GNGSA,A,2,66,67,68,77,78,81,82,83,,,,,0.9,0.6,0.7*2D
$GPGSV,3,1,11,01,63,191,21,03,59,345,19,09,21,251,24,11,36,192,23*74
$GPGSV,3,2,11,17,13,285,21,19,05,310,19,22,59,066,21,23,52,270,28*71
$GPGSV,3,3,11,26,06,104,17,31,28,047,26,16,00,132,*40
$GLGSV,2,1,08,78,21,158,14,66,16,071,22,82,32,230,23,77,45,097,18*67
$GLGSV,2,2,08,83,31,299,19,81,04,189,20,67,47,016,23,68,28,307,17*63
$GPGGA,034820.0,3206.866797,N,03501.722051,E,1,10,0.6,219.4,M,19.0,M,,*52
$GPVTG,292.5,T,289.5,M,35.8,N,66.4,K,A*23
$GPRMC,034820.0,A,3206.866797,N,03501.722051,E,35.8,292.5,120416,3.0,E,A*3B
$GPGSA,A,2,01,03,09,11,17,19,22,23,26,31,,,0.9,0.6,0.7*39
$GNGSA,A,2,01,03,09,11,17,19,22,23,26,31,,,0.9,0.6,0.7*27
$GNGSA,A,2,66,67,68,77,78,81,82,83,,,,,0.9,0.6,0.7*2D
$GPGSV,3,1,11,01,63,191,18,03,59,345,19,09,21,251,18,11,36,192,21*73
$GPGSV,3,2,11,17,13,285,21,19,05,310,19,22,59,066,21,23,52,270,27*7E
$GPGSV,3,3,11,26,06,104,16,31,28,047,26,16,00,132,*41
$GLGSV,2,1,08,78,21,158,14,66,16,071,19,82,32,230,25,77,45,097,17*66
$GLGSV,2,2,08,83,31,299,17,81,04,189,21,67,47,016,17,68,28,307,23*6C
$GPGGA,034821.0,3206.873914,N,03501.709631,E,1,10,0.6,217.8,M,19.0,M,,*59
$GPVTG,296.5,T,293.5,M,37.8,N,70.0,K,A*2D
$GPRMC,034821.0,A,3206.873914,N,03501.709631,E,37.8,296.5,120416,3.0,E,A*34
$GPGSA,A,2,01,03,09,11,17,19,22,23,26,31,,,0.9,0.6,0.7*39
$GNGSA,A,2,01,03,09,11,17,19,22,23,26,31,,,0.9,0.6,0.7*27
$GNGSA,A,2,66,67,68,77,78,81,82,83,,,,,0.9,0.6,0.7*2D
$GPGSV,3,1,11,01,63,191,18,03,59,345,19,09,21,251,20,11,36,192,24*7D
$GPGSV,3,2,11,17,13,285,18,19,05,310,16,22,59,066,21,23,52,270,27*7B
$GPGSV,3,3,11,26,06,104,16,31,28,047,26,16,00,132,*41
$GLGSV,2,1,08,78,21,158,14,66,16,071,19,82,32,230,29,77,45,097,19*64
$GLGSV,2,2,08,83,31,299,17,81,04,189,21,67,47,016,16,68,28,307,24*6A
$GPGGA,034822.0,3206.883235,N,03501.696134,E,1,10,0.6,215.6,M,19.0,M,,*54
$GPVTG,302.3,T,299.3,M,41.0,N,76.0,K,A*24
$GPRMC,034822.0,A,3206.883235,N,03501.696134,E,41.0,302.3,120416,3.0,E,A*36
$GPGSA,A,2,01,03,09,11,17,19,22,23,26,31,,,0.9,0.6,0.7*39
$GNGSA,A,2,01,03,09,11,17,19,22,23,26,31,,,0.9,0.6,0.7*27
$GNGSA,A,2,66,67,68,77,78,81,82,83,,,,,0.9,0.6,0.7*2D
$GPGSV,3,1,11,01,63,191,15,03,59,345,24,09,21,251,18,11,36,192,27*76
$GPGSV,3,2,11,17,13,285,21,19,05,310,16,22,59,066,23,23,52,270,28*7C
$GPGSV,3,3,11,26,06,104,16,31,28,047,17,16,00,132,*43
$GLGSV,2,1,08,78,21,158,15,66,16,071,19,82,32,230,31,77,45,097,20*66
$GLGSV,2,2,08,83,31,299,16,81,04,189,21,67,47,016,16,68,28,307,24*6B
$GPGGA,034823.0,3206.889967,N,03501.684710,E,1,10,0.6,214.7,M,19.0,M,,*50
$GPVTG,302.7,T,299.8,M,40.8,N,75.6,K,A*27
$GPRMC,034823.0,A,3206.889967,N,03501.684710,E,40.8,302.7,120416,3.0,E,A*3F
$GPGSA,A,2,01,03,09,11,17,19,22,23,26,31,,,0.9,0.6,0.7*39
$GNGSA,A,2,01,03,09,11,17,19,22,23,26,31,,,0.9,0.6,0.7*27
$GNGSA,A,2,66,67,68,77,78,81,82,83,,,,,0.9,0.6,0.7*2D
$GPGSV,3,1,11,01,63,191,16,03,59,345,19,09,21,251,18,11,36,192,25*79
$GPGSV,3,2,11,17,13,285,21,19,05,310,16,22,59,066,21,23,52,270,28*7E
$GPGSV,3,3,11,26,06,104,16,31,28,047,18,16,00,132,*4C
$GLGSV,2,1,08,78,21,158,19,66,16,071,19,82,32,230,31,77,45,097,18*61
$GLGSV,2,2,08,83,31,299,16,81,04,189,21,67,47,016,17,68,28,307,25*6B
$GPGGA,034824.0,3206.896209,N,03501.676577,E,1,10,0.6,214.6,M,19.0,M,,*55
$GPVTG,305.1,T,302.1,M,39.4,N,73.0,K,A*2E
$GPRMC,034824.0,A,3206.896209,N,03501.676577,E,39.4,305.1,120416,3.0,E,A*38
$GPGSA,A,2,01,03,09,11,17,19,22,23,26,31,,,0.9,0.6,0.7*39
$GNGSA,A,2,01,03,09,11,17,19,22,23,26,31,,,0.9,0.6,0.7*27
$GNGSA,A,2,66,67,68,77,78,81,82,83,,,,,0.9,0.6,0.7*2D
$GPGSV,3,1,11,01,63,191,16,03,59,345,22,09,21,251,18,11,36,192,27*73
$GPGSV,3,2,11,17,13,285,21,19,05,310,15,22,59,066,23,23,52,270,29*7E
$GPGSV,3,3,11,26,06,104,16,31,28,047,18,16,00,132,*4C
$GLGSV,2,1,08,78,21,158,19,66,16,071,19,82,32,230,30,77,45,097,18*60
$GLGSV,2,2,08,83,31,299,16,81,04,189,21,67,47,016,19,68,28,307,25*65
$GPGGA,034825.0,3206.903011,N,03501.666997,E,1,10,0.6,216.9,M,19.0,M,,*5C
$GPVTG,305.4,T,302.4,M,39.3,N,72.9,K,A*21
$GPRMC,034825.0,A,3206.903011,N,03501.666997,E,39.3,305.4,120416,3.0,E,A*3E
$GPGSA,A,2,01,03,09,11,17,19,22,23,26,31,,,0.9,0.6,0.7*39
$GNGSA,A,2,01,03,09,11,17,19,22,23,26,31,,,0.9,0.6,0.7*27
$GNGSA,A,2,66,67,68,77,78,81,82,83,,,,,0.9,0.6,0.7*2D
$GPGSV,3,1,11,01,63,191,16,03,59,345,22,09,21,251,14,11,36,192,26*7E
$GPGSV,3,2,11,17,13,285,21,19,05,310,15,22,59,066,20,23,52,270,26*72
$GPGSV,3,3,11,26,06,104,16,31,28,047,18,16,00,132,*4C
$GLGSV,2,1,08,78,21,158,19,66,16,071,19,82,32,230,28,77,45,097,18*69
$GLGSV,2,2,08,83,31,299,16,81,04,189,21,67,47,016,18,68,28,307,21*60
$GPGGA,034826.0,3206.910068,N,03501.655943,E,1,10,0.6,215.2,M,19.0,M,,*52
$GPVTG,305.2,T,302.3,M,39.8,N,73.6,K,A*25
$GPRMC,034826.0,A,3206.910068,N,03501.655943,E,39.8,305.2,120416,3.0,E,A*35
$GPGSA,A,2,01,03,09,11,17,19,22,23,26,31,,,0.9,0.6,0.7*39
$GNGSA,A,2,01,03,09,11,17,19,22,23,26,31,,,0.9,0.6,0.7*27
$GNGSA,A,2,66,67,68,77,78,81,82,83,,,,,0.9,0.6,0.7*2D
$GPGSV,3,1,11,01,63,191,14,03,59,345,23,09,21,251,14,11,36,192,28*73
$GPGSV,3,2,11,17,13,285,22,19,05,310,17,22,59,066,21,23,52,270,27*73
$GPGSV,3,3,11,26,06,104,16,31,28,047,18,16,00,132,*4C
$GLGSV,2,1,08,78,21,158,18,66,16,071,13,82,32,230,26,77,45,097,17*63
$GLGSV,2,2,08,83,31,299,15,81,04,189,21,67,47,016,17,68,28,307,21*6C
$GPGGA,034827.0,3206.915551,N,03501.645920,E,1,10,0.6,215.7,M,19.0,M,,*58
$GPVTG,303.9,T,300.9,M,39.8,N,73.7,K,A*21
$GPRMC,034827.0,A,3206.915551,N,03501.645920,E,39.8,303.9,120416,3.0,E,A*37
$GPGSA,A,2,01,03,09,11,17,19,22,23,26,31,,,0.9,0.6,0.7*39
$GNGSA,A,2,01,03,09,11,17,19,22,23,26,31,,,0.9,0.6,0.7*27
$GNGSA,A,2,66,67,68,77,78,81,82,83,,,,,0.9,0.6,0.7*2D
$GPGSV,3,1,11,01,63,191,14,03,59,345,22,09,21,251,14,11,36,192,27*7D
$GPGSV,3,2,11,17,13,285,23,19,05,310,19,22,59,066,20,23,52,270,28*72
$GPGSV,3,3,11,26,06,104,16,31,28,047,18,16,00,132,*4C
$GLGSV,2,1,08,78,21,158,19,66,16,071,13,82,32,230,29,77,45,097,19*63
$GLGSV,2,2,08,83,31,299,19,81,04,189,21,67,47,016,18,68,28,307,24*6A
$GPGGA,034828.0,3206.922100,N,03501.635068,E,1,09,0.7,215.3,M,19.0,M,,*5C
$GPVTG,303.9,T,300.9,M,40.1,N,74.3,K,A*25
$GPRMC,034828.0,A,3206.922100,N,03501.635068,E,40.1,303.9,120416,3.0,E,A*39
$GPGSA,A,2,01,03,09,11,17,19,22,23,31,,,,1.0,0.7,0.8*3B
$GNGSA,A,2,01,03,09,11,17,19,22,23,31,,,,1.0,0.7,0.8*25
$GNGSA,A,2,66,67,68,77,78,82,83,,,,,,1.0,0.7,0.8*22
$GPGSV,3,1,11,01,63,191,14,03,59,345,19,09,21,251,16,11,36,192,28*78
$GPGSV,3,2,11,17,13,285,24,19,05,310,20,22,59,066,22,23,52,270,28*7D
$GPGSV,3,3,11,26,06,104,16,31,28,047,13,16,00,132,*47
$GLGSV,2,1,08,78,21,158,18,66,16,071,17,82,32,230,29,77,45,097,18*67
$GLGSV,2,2,08,83,31,299,21,81,04,189,21,67,47,016,18,68,28,307,26*63
$GPGGA,034829.0,3206.929396,N,03501.627541,E,1,09,0.7,213.6,M,19.0,M,,*55
$GPVTG,307.1,T,304.1,M,38.6,N,71.5,K,A*2E
$GPRMC,034829.0,A,3206.929396,N,03501.627541,E,38.6,307.1,120416,3.0,E,A*37
$GPGSA,A,2,01,03,09,11,17,19,22,23,31,,,,1.0,0.7,0.8*3B
$GNGSA,A,2,01,03,09,11,17,19,22,23,31,,,,1.0,0.7,0.8*25
$GNGSA,A,2,66,67,68,77,78,82,83,,,,,,1.0,0.7,0.8*22
$GPGSV,3,1,11,01,63,191,14,03,59,345,20,09,21,251,21,11,36,192,28*76
$GPGSV,3,2,11,17,13,285,22,19,05,310,20,22,59,066,21,23,52,270,28*78
$GPGSV,3,3,11,26,06,104,16,31,28,047,13,16,00,132,*47
$GLGSV,2,1,08,78,21,158,18,66,16,071,19,82,32,230,28,77,45,097,18*68
$GLGSV,2,2,08,83,31,299,21,81,04,189,12,67,47,016,18,68,28,307,25*60
$GPGGA,034830.0,3206.936330,N,03501.619270,E,1,09,0.7,213.9,M,19.0,M,,*58
$GPVTG,308.3,T,305.3,M,37.4,N,69.2,K,A*23
$GPRMC,034830.0,A,3206.936330,N,03501.619270,E,37.4,308.3,120416,3.0,E,A*35
$GPGSA,A,2,01,03,09,11,17,19,22,23,31,,,,1.0,0.7,0.8*3B
$GNGSA,A,2,01,03,09,11,17,19,22,23,31,,,,1.0,0.7,0.8*25
$GNGSA,A,2,66,67,68,77,78,82,83,,,,,,1.0,0.7,0.8*22
$GPGSV,3,1,11,01,63,191,14,03,59,345,22,09,21,251,25,11,36,192,30*79
$GPGSV,3,2,11,17,13,285,24,19,05,310,20,22,59,066,24,23,52,270,31*73
$GPGSV,3,3,11,26,06,104,16,31,28,047,16,16,00,132,*42
$GLGSV,2,1,08,78,21,158,19,66,16,071,18,82,32,230,31,77,45,097,17*6F
$GLGSV,2,2,08,83,31,299,18,81,04,189,22,67,47,016,14,68,28,307,25*65
$GPGGA,034831.0,3206.941498,N,03501.610490,E,1,09,0.7,212.7,M,19.0,M,,*52
$GPVTG,306.6,T,303.6,M,36.8,N,68.1,K,A*24
$GPRMC,034831.0,A,3206.941498,N,03501.610490,E,36.8,306.6,120416,3.0,E,A*36
$GPGSA,A,2,01,03,09,11,17,19,22,23,31,,,,1.0,0.7,0.8*3B
$GNGSA,A,2,01,03,09,11,17,19,22,23,31,,,,1.0,0.7,0.8*25
$GNGSA,A,2,66,67,68,77,78,82,83,,,,,,1.0,0.7,0.8*22
$GPGSV,3,1,11,01,63,191,22,03,59,345,18,09,21,251,23,11,36,192,28*7A
$GPGSV,3,2,11,17,13,285,22,19,05,310,20,22,59,066,24,23,52,270,31*75
$GPGSV,3,3,11,31,28,047,24,16,00,132,,26,06,104,*44
$GLGSV,2,1,08,78,21,158,20,66,16,071,20,82,32,230,31,77,45,097,20*6A
$GLGSV,2,2,08,83,31,299,25,81,04,189,27,67,47,016,17,68,28,307,25*6D
$GPGGA,034832.0,3206.946136,N,03501.600664,E,1,09,0.7,213.2,M,19.0,M,,*5B
$GPVTG,303.9,T,301.0,M,33.5,N,62.0,K,A*29
$GPRMC,034832.0,A,3206.946136,N,03501.600664,E,33.5,303.9,120416,3.0,E,A*39
$GPGSA,A,2,01,03,09,11,17,19,22,23,31,,,,1.0,0.7,0.8*3B
$GNGSA,A,2,01,03,09,11,17,19,22,23,31,,,,1.0,0.7,0.8*25
$GNGSA,A,2,66,67,68,77,78,82,83,,,,,,1.0,0.7,0.8*22
$GPGSV,3,1,11,01,63,191,20,03,59,345,20,09,21,251,25,11,36,192,29*74
$GPGSV,3,2,11,17,13,285,19,19,05,310,15,22,59,066,25,23,52,270,33*78
$GPGSV,3,3,11,31,28,047,22,16,00,132,,26,06,104,*42
$GLGSV,2,1,08,78,21,158,20,66,16,071,20,82,32,230,31,77,45,097,20*6A
$GLGSV,2,2,08,83,31,299,26,81,04,189,30,67,47,016,19,68,28,307,22*61
$GPGGA,034833.0,3206.950450,N,03501.593648,E,1,09,0.7,212.7,M,19.0,M,,*5B
$GPVTG,303.1,T,300.1,M,29.0,N,53.6,K,A*2B
$GPRMC,034833.0,A,3206.950450,N,03501.593648,E,29.0,303.1,120416,3.0,E,A*3B
$GPGSA,A,2,01,03,09,11,17,19,22,23,31,,,,1.0,0.7,0.8*3B
$GNGSA,A,2,01,03,09,11,17,19,22,23,31,,,,1.0,0.7,0.8*25
$GNGSA,A,2,66,67,68,77,78,82,83,,,,,,1.0,0.7,0.8*22
$GPGSV,3,1,11,01,63,191,24,03,59,345,20,09,21,251,26,11,36,192,30*7B
$GPGSV,3,2,11,17,13,285,19,19,05,310,17,22,59,066,25,23,52,270,32*7B
$GPGSV,3,3,11,31,28,047,19,16,00,132,,26,06,104,*4A
$GLGSV,2,1,08,78,21,158,20,66,16,071,18,82,32,230,31,77,45,097,20*61
$GLGSV,2,2,08,83,31,299,26,81,04,189,30,67,47,016,17,68,28,307,24*69
$GPGGA,034834.0,3206.955605,N,03501.587166,E,1,09,0.7,211.7,M,19.0,M,,*56
$GPVTG,303.2,T,300.2,M,25.8,N,47.8,K,A*24
$GPRMC,034834.0,A,3206.955605,N,03501.587166,E,25.8,303.2,120416,3.0,E,A*32
$GPGSA,A,2,01,03,09,11,17,19,22,23,31,,,,1.0,0.7,0.8*3B
$GNGSA,A,2,01,03,09,11,17,19,22,23,31,,,,1.0,0.7,0.8*25
$GNGSA,A,2,66,67,68,77,78,82,83,,,,,,1.0,0.7,0.8*22
$GPGSV,3,1,11,01,63,191,21,03,59,345,24,09,21,251,23,11,36,192,30*7F
$GPGSV,3,2,11,17,13,285,22,19,05,310,18,22,59,066,24,23,52,270,31*7E
$GPGSV,3,3,11,31,28,047,20,16,00,132,,26,06,104,*40
$GLGSV,2,1,08,78,21,158,20,66,16,071,17,82,32,230,27,77,45,097,17*6D
$GLGSV,2,2,08,83,31,299,25,81,04,189,30,67,47,016,22,68,28,307,23*6B
$GPGGA,034835.0,3206.958800,N,03501.579952,E,1,09,0.7,209.4,M,19.0,M,,*55
$GPVTG,300.2,T,297.3,M,23.2,N,43.0,K,A*29
$GPRMC,034835.0,A,3206.958800,N,03501.579952,E,23.2,300.2,120416,3.0,E,A*34
$GPGSA,A,2,01,03,09,11,17,19,22,23,31,,,,1.0,0.7,0.8*3B
$GNGSA,A,2,01,03,09,11,17,19,22,23,31,,,,1.0,0.7,0.8*25
$GNGSA,A,2,66,67,68,77,78,82,83,,,,,,1.0,0.7,0.8*22
$GPGSV,3,1,11,01,63,191,21,03,59,345,24,09,21,251,23,11,36,192,24*7A
$GPGSV,3,2,11,17,13,285,21,19,05,310,18,22,59,066,20,23,52,270,28*71
$GPGSV,3,3,11,31,28,047,18,16,00,132,,26,06,104,*4B
$GLGSV,2,1,08,78,21,158,20,66,16,071,17,82,32,230,23,77,45,097,17*69
$GLGSV,2,2,08,83,31,299,26,81,04,189,27,67,47,016,26,68,28,307,25*6C
$GPGGA,034836.0,3206.961298,N,03501.573446,E,1,09,0.7,208.6,M,19.0,M,,*56
$GPVTG,300.3,T,297.3,M,21.5,N,39.9,K,A*29
$GPRMC,034836.0,A,3206.961298,N,03501.573446,E,21.5,300.3,120416,3.0,E,A*30
$GPGSA,A,2,01,03,09,11,17,19,22,23,31,,,,1.0,0.7,0.8*3B
$GNGSA,A,2,01,03,09,11,17,19,22,23,31,,,,1.0,0.7,0.8*25
$GNGSA,A,2,66,67,68,77,78,82,83,,,,,,1.0,0.7,0.8*22
$GPGSV,3,1,11,01,63,191,21,03,59,345,28,09,21,251,18,11,36,192,22*78
$GPGSV,3,2,11,17,13,285,20,19,05,310,18,22,59,066,18,23,52,270,30*72
$GPGSV,3,3,11,31,28,047,18,16,00,132,,26,06,104,*4B
$GLGSV,2,1,08,78,21,158,13,66,16,071,21,82,32,230,25,77,45,097,17*6A
$GLGSV,2,2,08,83,31,299,25,81,04,189,24,67,47,016,23,68,28,307,21*6D
$GPGGA,034837.0,3206.963823,N,03501.567617,E,1,09,0.7,208.3,M,19.0,M,,*59
$GPVTG,299.1,T,296.1,M,20.5,N,37.9,K,A*26
$GPRMC,034837.0,A,3206.963823,N,03501.567617,E,20.5,299.1,120416,3.0,E,A*38
$GPGSA,A,2,01,03,09,11,17,19,22,23,31,,,,1.0,0.7,0.8*3B
$GNGSA,A,2,01,03,09,11,17,19,22,23,31,,,,1.0,0.7,0.8*25
$GNGSA,A,2,66,67,68,77,78,82,83,,,,,,1.0,0.7,0.8*22
$GPGSV,3,1,11,01,63,191,16,03,59,345,27,09,21,251,24,11,36,192,24*7A
$GPGSV,3,2,11,17,13,285,22,19,05,310,16,22,59,066,18,23,52,270,29*76
$GPGSV,3,3,11,31,28,047,18,16,00,132,,26,06,104,*4B
$GLGSV,2,1,08,78,21,158,13,66,16,071,19,82,32,230,25,77,45,097,15*63
$GLGSV,2,2,08,83,31,299,24,81,04,189,23,67,47,016,19,68,28,307,20*63
$GPGGA,034838.0,3206.965068,N,03501.564553,E,1,09,0.7,207.2,M,19.0,M,,*59
$GPVTG,295.0,T,292.0,M,17.7,N,32.8,K,A*2C
$GPRMC,034838.0,A,3206.965068,N,03501.564553,E,17.7,295.0,120416,3.0,E,A*3D
$GPGSA,A,2,01,03,09,11,17,19,22,23,31,,,,1.0,0.7,0.8*3B
$GNGSA,A,2,01,03,09,11,17,19,22,23,31,,,,1.0,0.7,0.8*25
$GNGSA,A,2,66,67,68,77,78,82,83,,,,,,1.0,0.7,0.8*22
$GPGSV,3,1,11,01,63,191,16,03,59,345,24,09,21,251,24,11,36,192,20*7D
$GPGSV,3,2,11,17,13,285,22,19,05,310,22,22,59,066,18,23,52,270,29*71
$GPGSV,3,3,11,31,28,047,15,16,00,132,,26,06,104,*46
$GLGSV,2,1,08,78,21,158,13,66,16,071,19,82,32,230,25,77,45,097,15*63
$GLGSV,2,2,08,83,31,299,23,81,04,189,23,67,47,016,23,68,28,307,19*67
$GPGGA,034839.0,3206.966663,N,03501.559457,E,1,09,0.7,207.0,M,19.0,M,,*5F
$GPVTG,293.7,T,290.7,M,17.5,N,32.3,K,A*21
$GPRMC,034839.0,A,3206.966663,N,03501.559457,E,17.5,293.7,120416,3.0,E,A*3A
$GPGSA,A,2,01,03,09,11,17,19,22,23,31,,,,1.0,0.7,0.8*3B
$GNGSA,A,2,01,03,09,11,17,19,22,23,31,,,,1.0,0.7,0.8*25
$GNGSA,A,2,66,67,68,77,78,82,83,,,,,,1.0,0.7,0.8*22
$GPGSV,3,1,11,01,63,191,16,03,59,345,28,09,21,251,23,11,36,192,18*7D
$GPGSV,3,2,11,17,13,285,17,19,05,310,18,22,59,066,18,23,52,270,31*77
$GPGSV,3,3,11,31,28,047,17,16,00,132,,26,06,104,*44
$GLGSV,2,1,08,78,21,158,13,66,16,071,17,82,32,230,26,77,45,097,15*6E
$GLGSV,2,2,08,83,31,299,25,81,04,189,25,67,47,016,23,68,28,307,24*69
$GPGGA,034840.0,3206.968467,N,03501.553637,E,1,09,0.7,206.0,M,19.0,M,,*56
$GPVTG,296.4,T,293.4,M,17.9,N,33.2,K,A*2B
$GPRMC,034840.0,A,3206.968467,N,03501.553637,E,17.9,296.4,120416,3.0,E,A*38
$GPGSA,A,2,01,03,09,11,17,19,22,23,31,,,,1.0,0.7,0.8*3B
$GNGSA,A,2,01,03,09,11,17,19,22,23,31,,,,1.0,0.7,0.8*25
$GNGSA,A,2,66,67,68,77,78,82,83,,,,,,1.0,0.7,0.8*22
$GPGSV,3,1,11,01,63,191,14,03,59,345,28,09,21,251,25,11,36,192,25*77
$GPGSV,3,2,11,17,13,285,21,19,05,310,19,22,59,066,16,23,52,270,27*7A
$GPGSV,3,3,11,31,28,047,21,16,00,132,,26,06,104,*41
$GLGSV,2,1,08,78,21,158,13,66,16,071,18,82,32,230,25,77,45,097,15*62
$GLGSV,2,2,08,83,31,299,25,81,04,189,25,67,47,016,24,68,28,307,25*6F
$GPGGA,034841.0,3206.974800,N,03501.544007,E,1,09,0.7,205.3,M,19.0,M,,*54
$GPVTG,306.8,T,303.9,M,21.3,N,39.4,K,A*29
$GPRMC,034841.0,A,3206.974800,N,03501.544007,E,21.3,306.8,120416,3.0,E,A*31
$GPGSA,A,2,01,03,09,11,17,19,22,23,31,,,,1.0,0.7,0.8*3B
$GNGSA,A,2,01,03,09,11,17,19,22,23,31,,,,1.0,0.7,0.8*25
$GNGSA,A,2,66,67,68,77,78,82,83,,,,,,1.0,0.7,0.8*22
$GPGSV,3,1,11,01,63,191,14,03,59,345,28,09,21,251,22,11,36,192,22*77
$GPGSV,3,2,11,17,13,285,24,19,05,310,18,22,59,066,16,23,52,270,28*71
$GPGSV,3,3,11,31,28,047,17,16,00,132,,26,06,104,*44
$GLGSV,2,1,08,78,21,158,13,66,16,071,16,82,32,230,22,77,45,097,15*6B
$GLGSV,2,2,08,83,31,299,19,81,04,189,17,67,47,016,27,68,28,307,22*65
$GPGGA,034842.0,3206.979458,N,03501.538463,E,1,09,0.7,204.8,M,19.0,M,,*5C
$GPVTG,318.1,T,315.1,M,20.7,N,38.4,K,A*24
$GPRMC,034842.0,A,3206.979458,N,03501.538463,E,20.7,318.1,120416,3.0,E,A*30
$GPGSA,A,2,01,03,09,11,17,19,22,23,31,,,,1.0,0.7,0.8*3B
$GNGSA,A,2,01,03,09,11,17,19,22,23,31,,,,1.0,0.7,0.8*25
$GNGSA,A,2,66,67,68,77,78,82,83,,,,,,1.0,0.7,0.8*22
$GPGSV,3,1,11,01,63,191,17,03,59,345,29,09,21,251,26,11,36,192,23*70
$GPGSV,3,2,11,17,13,285,18,19,05,310,18,22,59,066,18,23,52,270,28*70
$GPGSV,3,3,11,31,28,047,22,16,00,132,,26,06,104,*42
$GLGSV,2,1,08,78,21,158,13,66,16,071,18,82,32,230,28,77,45,097,15*6F
$GLGSV,2,2,08,83,31,299,24,81,04,189,18,67,47,016,27,68,28,307,26*60
$GPGGA,034843.0,3206.981345,N,03501.536040,E,1,09,0.7,202.5,M,19.0,M,,*51
$GPVTG,317.0,T,314.1,M,17.4,N,32.3,K,A*21
$GPRMC,034843.0,A,3206.981345,N,03501.536040,E,17.4,317.0,120416,3.0,E,A*3F
$GPGSA,A,2,01,03,09,11,17,19,22,23,31,,,,1.0,0.7,0.8*3B
$GNGSA,A,2,01,03,09,11,17,19,22,23,31,,,,1.0,0.7,0.8*25
$GNGSA,A,2,66,67,68,77,78,82,83,,,,,,1.0,0.7,0.8*22
$GPGSV,3,1,11,01,63,191,21,03,59,345,29,09,21,251,24,11,36,192,27*73
$GPGSV,3,2,11,17,13,285,18,19,05,310,16,22,59,066,18,23,52,270,33*74
$GPGSV,3,3,11,31,28,047,20,16,00,132,,26,06,104,*40
$GLGSV,2,1,08,78,21,158,13,66,16,071,20,82,32,230,27,77,45,097,15*6B
$GLGSV,2,2,08,83,31,299,25,81,04,189,21,67,47,016,24,68,28,307,24*6A
$GPGGA,034844.0,3206.983329,N,03501.531489,E,1,09,0.7,202.3,M,19.0,M,,*5E
$GPVTG,296.2,T,293.2,M,16.3,N,30.2,K,A*23
$GPRMC,034844.0,A,3206.983329,N,03501.531489,E,16.3,296.2,120416,3.0,E,A*3A
$GPGSA,A,2,01,03,09,11,17,19,22,23,31,,,,1.0,0.7,0.8*3B
$GNGSA,A,2,01,03,09,11,17,19,22,23,31,,,,1.0,0.7,0.8*25
$GNGSA,A,2,66,67,68,77,78,82,83,,,,,,1.0,0.7,0.8*22
$GPGSV,3,1,11,01,63,191,21,03,59,345,19,09,21,251,21,11,36,192,27*75
$GPGSV,3,2,11,17,13,285,18,19,05,310,16,22,59,066,22,23,52,270,29*76
$GPGSV,3,3,11,31,28,047,21,16,00,132,,26,06,104,*41
$GLGSV,2,1,08,78,21,158,19,66,16,071,20,82,32,230,24,77,45,097,15*62
$GLGSV,2,2,08,83,31,299,24,81,04,189,18,67,47,016,23,68,28,307,22*60
$GPGGA,034845.0,3206.983033,N,03501.525878,E,1,09,0.7,201.9,M,19.0,M,,*59
$GPVTG,278.6,T,275.7,M,15.0,N,27.8,K,A*26
$GPRMC,034845.0,A,3206.983033,N,03501.525878,E,15.0,278.6,120416,3.0,E,A*30
$GPGSA,A,2,01,03,09,11,17,19,22,23,31,,,,1.0,0.7,0.8*3B
$GNGSA,A,2,01,03,09,11,17,19,22,23,31,,,,1.0,0.7,0.8*25
$GNGSA,A,2,66,67,68,78,82,83,,,,,,,1.0,0.7,0.8*22
$GPGSV,3,1,11,01,63,191,27,03,59,345,23,09,21,251,27,11,36,192,27*7C
$GPGSV,3,2,11,17,13,285,19,19,05,310,16,22,59,066,24,23,52,270,30*79
$GPGSV,3,3,11,31,28,047,19,16,00,132,,26,06,104,*4A
$GLGSV,2,1,08,78,21,158,19,66,16,071,19,82,32,230,23,77,45,097,13*69
$GLGSV,2,2,08,83,31,299,21,81,04,189,21,67,47,016,23,68,28,307,22*6F
$GPGGA,034846.0,3206.980737,N,03501.520379,E,1,09,0.7,199.3,M,19.0,M,,*5D
$GPVTG,250.0,T,247.0,M,17.5,N,32.4,K,A*23
$GPRMC,034846.0,A,3206.980737,N,03501.520379,E,17.5,250.0,120416,3.0,E,A*37
$GPGSA,A,2,01,03,09,11,17,19,22,23,31,,,,1.0,0.7,0.8*3B
$GNGSA,A,2,01,03,09,11,17,19,22,23,31,,,,1.0,0.7,0.8*25
$GNGSA,A,2,66,67,68,77,78,82,83,,,,,,1.0,0.7,0.8*22
$GPGSV,3,1,11,01,63,191,31,03,59,345,23,09,21,251,28,11,36,192,32*70
$GPGSV,3,2,11,17,13,285,25,19,05,310,16,22,59,066,29,23,52,270,29*73
$GPGSV,3,3,11,31,28,047,19,16,00,132,,26,06,104,*4A
$GLGSV,2,1,08,78,21,158,18,66,16,071,24,82,32,230,21,77,45,097,13*64
$GLGSV,2,2,08,83,31,299,18,81,04,189,23,67,47,016,18,68,28,307,20*6D
$GPGGA,034847.0,3206.978381,N,03501.514941,E,1,09,0.7,197.5,M,19.0,M,,*5C
$GPVTG,249.0,T,246.1,M,19.6,N,36.4,K,A*22
$GPRMC,034847.0,A,3206.978381,N,03501.514941,E,19.6,249.0,120416,3.0,E,A*3B
$GPGSA,A,2,01,03,09,11,17,19,22,23,31,,,,1.0,0.7,0.8*3B
$GNGSA,A,2,01,03,09,11,17,19,22,23,31,,,,1.0,0.7,0.8*25
$GNGSA,A,2,66,67,68,77,78,82,83,,,,,,1.0,0.7,0.8*22
$GPGSV,3,1,11,01,63,191,27,03,59,345,19,09,21,251,22,11,36,192,26*71
$GPGSV,3,2,11,17,13,285,19,19,05,310,16,22,59,066,24,23,52,270,28*70
$GPGSV,3,3,11,31,28,047,18,16,00,132,,26,06,104,*4B
$GLGSV,2,1,08,78,21,158,18,66,16,071,16,82,32,230,22,77,45,097,13*66
$GLGSV,2,2,08,83,31,299,22,81,04,189,23,67,47,016,20,68,28,307,17*6B
$GPGGA,034848.0,3206.976914,N,03501.507551,E,1,09,0.7,196.4,M,19.0,M,,*54
$GPVTG,257.7,T,254.7,M,22.1,N,41.0,K,A*24
$GPRMC,034848.0,A,3206.976914,N,03501.507551,E,22.1,257.7,120416,3.0,E,A*34
$GPGSA,A,2,01,03,09,11,17,19,22,23,31,,,,1.0,0.7,0.8*3B
$GNGSA,A,2,01,03,09,11,17,19,22,23,31,,,,1.0,0.7,0.8*25
$GNGSA,A,2,66,67,68,77,78,82,83,,,,,,1.0,0.7,0.8*22
$GPGSV,3,1,11,01,63,191,24,03,59,345,23,09,21,251,22,11,36,192,25*78
$GPGSV,3,2,11,17,13,285,19,19,05,310,16,22,59,066,24,23,52,270,29*71
$GPGSV,3,3,11,31,28,047,18,16,00,132,,26,06,104,*4B
$GLGSV,2,1,08,78,21,158,18,66,16,071,16,82,32,230,20,77,45,097,13*64
$GLGSV,2,2,08,83,31,299,19,81,04,189,23,67,47,016,22,68,28,307,17*61
$GPGGA,034849.0,3206.974805,N,03501.500107,E,1,09,0.7,195.6,M,19.0,M,,*57
$GPVTG,256.7,T,253.7,M,23.3,N,43.2,K,A*21
$GPRMC,034849.0,A,3206.974805,N,03501.500107,E,23.3,256.7,120416,3.0,E,A*34
$GPGSA,A,2,01,03,09,11,17,19,22,23,31,,,,1.0,0.7,0.8*3B
$GNGSA,A,2,01,03,09,11,17,19,22,23,31,,,,1.0,0.7,0.8*25
$GNGSA,A,2,66,67,68,77,78,82,83,,,,,,1.0,0.7,0.8*22
$GPGSV,3,1,11,01,63,191,17,03,59,345,21,09,21,251,24,11,36,192,25*7C
$GPGSV,3,2,11,17,13,285,19,19,05,310,16,22,59,066,23,23,52,270,28*77
$GPGSV,3,3,11,31,28,047,18,16,00,132,,26,06,104,*4B
$GLGSV,2,1,08,78,21,158,15,66,16,071,16,82,32,230,19,77,45,097,13*63
$GLGSV,2,2,08,83,31,299,18,81,04,189,23,67,47,016,19,68,28,307,16*69
$GPGGA,034850.0,3206.973434,N,03501.491070,E,1,09,0.7,195.1,M,19.0,M,,*59
$GPVTG,257.8,T,254.8,M,25.2,N,46.6,K,A*21
$GPRMC,034850.0,A,3206.973434,N,03501.491070,E,25.2,257.8,120416,3.0,E,A*34
$GPGSA,A,2,01,03,09,11,17,19,22,23,31,,,,1.0,0.7,0.8*3B
$GNGSA,A,2,01,03,09,11,17,19,22,23,31,,,,1.0,0.7,0.8*25
$GNGSA,A,2,66,67,68,77,78,82,83,,,,,,1.0,0.7,0.8*22
$GPGSV,3,1,11,01,63,191,20,03,59,345,21,09,21,251,25,11,36,192,23*7F
$GPGSV,3,2,11,17,13,285,18,19,05,310,16,22,59,066,23,23,52,270,28*76
$GPGSV,3,3,11,31,28,047,14,16,00,132,,26,06,104,*47
$GLGSV,2,1,08,78,21,158,20,66,16,071,16,82,32,230,20,77,45,097,13*6F
$GLGSV,2,2,08,83,31,299,19,81,04,189,23,67,47,016,16,68,28,307,18*69
$GPGGA,034851.0,3206.967376,N,03501.482413,E,1,09,0.7,193.4,M,19.0,M,,*5C
$GPVTG,247.6,T,244.6,M,28.3,N,52.5,K,A*2B
$GPRMC,034851.0,A,3206.967376,N,03501.482413,E,28.3,247.6,120416,3.0,E,A*31
$GPGSA,A,2,01,03,09,11,17,19,22,23,31,,,,1.0,0.7,0.8*3B
$GNGSA,A,2,01,03,09,11,17,19,22,23,31,,,,1.0,0.7,0.8*25
$GNGSA,A,2,66,67,68,77,78,82,83,,,,,,1.0,0.7,0.8*22
$GPGSV,3,1,11,01,63,191,22,03,59,345,26,09,21,251,24,11,36,192,25*7D
$GPGSV,3,2,11,17,13,285,18,19,05,310,16,22,59,066,23,23,52,270,28*76
$GPGSV,3,3,11,31,28,047,14,16,00,132,,26,06,104,*47
$GLGSV,2,1,08,78,21,158,20,66,16,071,16,82,32,230,21,77,45,097,13*6E
$GLGSV,2,2,08,83,31,299,19,81,04,189,23,67,47,016,16,68,28,307,18*69
$GPGGA,034852.0,3206.970550,N,03501.467158,E,1,09,0.7,191.5,M,19.0,M,,*59
$GPVTG,264.3,T,261.3,M,33.5,N,62.0,K,A*27
$GPRMC,034852.0,A,3206.970550,N,03501.467158,E,33.5,264.3,120416,3.0,E,A*3F
$GPGSA,A,2,01,03,09,11,17,19,22,23,31,,,,1.0,0.7,0.8*3B
$GNGSA,A,2,01,03,09,11,17,19,22,23,31,,,,1.0,0.7,0.8*25
$GNGSA,A,2,66,67,68,77,78,82,83,,,,,,1.0,0.7,0.8*22
$GPGSV,3,1,11,01,63,191,23,03,59,345,25,09,21,251,23,11,36,192,25*78
$GPGSV,3,2,11,17,13,285,17,19,05,310,16,22,59,066,24,23,52,270,28*7E
$GPGSV,3,3,11,31,28,047,16,16,00,132,,26,06,104,*45
$GLGSV,2,1,08,78,21,158,18,66,16,071,16,82,32,230,23,77,45,097,13*67
$GLGSV,2,2,08,83,31,299,22,81,04,189,13,67,47,016,15,68,28,307,16*6F
$GPGGA,034853.0,3206.969654,N,03501.454695,E,1,08,0.7,192.9,M,19.0,M,,*5F
$GPVTG,265.9,T,263.0,M,35.4,N,65.6,K,A*2B
$GPRMC,034853.0,A,3206.969654,N,03501.454695,E,35.4,265.9,120416,3.0,E,A*3B
$GPGSA,A,2,01,03,09,11,17,22,23,31,,,,,1.1,0.7,0.8*32
$GNGSA,A,2,01,03,09,11,17,22,23,31,,,,,1.1,0.7,0.8*2C
$GNGSA,A,2,66,67,68,78,82,83,,,,,,,1.1,0.7,0.8*23
$GPGSV,3,1,11,01,63,191,24,03,59,345,21,09,21,251,24,11,36,192,24*7D
$GPGSV,3,2,11,17,13,285,18,19,05,310,16,22,59,066,26,23,52,270,28*73
$GPGSV,3,3,11,31,28,047,17,16,00,132,,26,06,104,*44
$GLGSV,2,1,08,78,21,158,21,66,16,071,14,82,32,230,23,77,45,097,13*6F
$GLGSV,2,2,08,83,31,299,24,81,04,189,13,67,47,016,23,68,28,307,21*68
$GPGGA,034854.0,3206.970560,N,03501.442715,E,1,08,0.7,191.8,M,19.0,M,,*58
$GPVTG,267.8,T,264.8,M,36.6,N,67.8,K,A*2A
$GPRMC,034854.0,A,3206.970560,N,03501.442715,E,36.6,267.8,120416,3.0,E,A*3C
$GPGSA,A,2,01,03,09,11,17,22,23,31,,,,,1.1,0.7,0.8*32
$GNGSA,A,2,01,03,09,11,17,22,23,31,,,,,1.1,0.7,0.8*2C
$GNGSA,A,2,66,67,68,78,82,83,,,,,,,1.1,0.7,0.8*23
$GPGSV,3,1,11,01,63,191,25,03,59,345,18,09,21,251,19,11,36,192,27*7B
$GPGSV,3,2,11,17,13,285,18,19,05,310,11,22,59,066,25,23,52,270,25*7A
$GPGSV,3,3,11,31,28,047,19,16,00,132,,26,06,104,*4A
$GLGSV,2,1,08,78,21,158,19,66,16,071,14,82,32,230,23,77,45,097,12*65
$GLGSV,2,2,08,83,31,299,22,81,04,189,17,67,47,016,23,68,28,307,25*6E
$GPGGA,034855.0,3206.969130,N,03501.430378,E,1,09,0.7,189.5,M,19.0,M,,*5F
$GPVTG,266.4,T,263.4,M,38.5,N,71.4,K,A*2A
$GPRMC,034855.0,A,3206.969130,N,03501.430378,E,38.5,266.4,120416,3.0,E,A*3E
$GPGSA,A,2,01,03,09,11,17,19,22,23,31,,,,1.0,0.7,0.8*3B
$GNGSA,A,2,01,03,09,11,17,19,22,23,31,,,,1.0,0.7,0.8*25
$GNGSA,A,2,66,67,68,77,78,82,83,,,,,,1.0,0.7,0.8*22
$GPGSV,3,1,11,01,63,191,24,03,59,345,18,09,21,251,19,11,36,192,28*75
$GPGSV,3,2,11,17,13,285,17,19,05,310,11,22,59,066,27,23,52,270,24*76
$GPGSV,3,3,11,31,28,047,19,16,00,132,,26,06,104,*4A
$GLGSV,2,1,08,78,21,158,19,66,16,071,14,82,32,230,23,77,45,097,12*65
$GLGSV,2,2,08,83,31,299,23,81,04,189,17,67,47,016,25,68,28,307,23*6F
$GPGGA,034856.0,3206.969580,N,03501.419367,E,1,09,0.7,188.4,M,19.0,M,,*56
$GPVTG,266.2,T,263.2,M,38.8,N,71.8,K,A*2B
$GPRMC,034856.0,A,3206.969580,N,03501.419367,E,38.8,266.2,120416,3.0,E,A*3C
$GPGSA,A,2,01,03,09,11,17,19,22,23,31,,,,1.0,0.7,0.8*3B
$GNGSA,A,2,01,03,09,11,17,19,22,23,31,,,,1.0,0.7,0.8*25
$GNGSA,A,2,66,67,68,77,78,82,83,,,,,,1.0,0.7,0.8*22
$GPGSV,3,1,11,01,63,191,17,03,59,345,20,09,21,251,19,11,36,192,24*72
$GPGSV,3,2,11,17,13,285,20,19,05,310,16,22,59,066,25,23,52,270,26*75
$GPGSV,3,3,11,31,28,047,19,16,00,132,,26,06,104,*4A
$GLGSV,2,1,08,78,21,158,19,66,16,071,14,82,32,230,23,77,45,097,17*60
$GLGSV,2,2,08,83,31,299,21,81,04,189,17,67,47,016,23,68,28,307,18*63
$GPGGA,034857.0,3206.967630,N,03501.405903,E,1,09,0.7,186.8,M,19.0,M,,*56
$GPVTG,262.5,T,259.5,M,40.1,N,74.2,K,A*2F
$GPRMC,034857.0,A,3206.967630,N,03501.405903,E,40.1,262.5,120416,3.0,E,A*3B
$GPGSA,A,2,01,03,09,11,17,19,22,23,31,,,,1.0,0.7,0.8*3B
$GNGSA,A,2,01,03,09,11,17,19,22,23,31,,,,1.0,0.7,0.8*25
$GNGSA,A,2,66,67,68,77,78,82,83,,,,,,1.0,0.7,0.8*22
$GPGSV,3,1,11,01,63,191,23,03,59,345,24,09,21,251,20,11,36,192,29*76
$GPGSV,3,2,11,17,13,285,20,19,05,310,18,22,59,066,25,23,52,270,26*7B
$GPGSV,3,3,11,31,28,047,19,16,00,132,,26,06,104,*4A
$GLGSV,2,1,08,78,21,158,16,66,16,071,14,82,32,230,19,77,45,097,20*62
$GLGSV,2,2,08,83,31,299,23,81,04,189,17,67,47,016,22,68,28,307,18*60
$GPGGA,034858.0,3206.965643,N,03501.393267,E,1,09,0.7,185.6,M,19.0,M,,*53
$GPVTG,261.7,T,258.7,M,39.8,N,73.7,K,A*28
$GPRMC,034858.0,A,3206.965643,N,03501.393267,E,39.8,261.7,120416,3.0,E,A*35
$GPGSA,A,2,01,03,09,11,17,19,22,23,31,,,,1.0,0.7,0.8*3B
$GNGSA,A,2,01,03,09,11,17,19,22,23,31,,,,1.0,0.7,0.8*25
$GNGSA,A,2,66,67,68,77,78,82,83,,,,,,1.0,0.7,0.8*22
$GPGSV,3,1,11,01,63,191,28,03,59,345,23,09,21,251,25,11,36,192,29*7F
$GPGSV,3,2,11,17,13,285,18,19,05,310,16,22,59,066,23,23,52,270,29*77
$GPGSV,3,3,11,31,28,047,19,16,00,132,,26,06,104,*4A
$GLGSV,2,1,08,78,21,158,16,66,16,071,14,82,32,230,21,77,45,097,20*69
$GLGSV,2,2,08,83,31,299,24,81,04,189,15,67,47,016,24,68,28,307,24*6C
$GPGGA,034859.0,3206.961588,N,03501.380785,E,1,09,0.7,184.3,M,19.0,M,,*5D
$GPVTG,256.7,T,253.8,M,41.4,N,76.7,K,A*2E
$GPRMC,034859.0,A,3206.961588,N,03501.380785,E,41.4,256.7,120416,3.0,E,A*38
$GPGSA,A,2,01,03,09,11,17,19,22,23,31,,,,1.0,0.7,0.8*3B
$GNGSA,A,2,01,03,09,11,17,19,22,23,31,,,,1.0,0.7,0.8*25
$GNGSA,A,2,66,67,68,77,78,82,83,,,,,,1.0,0.7,0.8*22
$GPGSV,3,1,11,01,63,191,28,03,59,345,20,09,21,251,26,11,36,192,27*71
$GPGSV,3,2,11,17,13,285,20,19,05,310,22,22,59,066,21,23,52,270,28*78
$GPGSV,3,3,11,31,28,047,19,16,00,132,,26,06,104,*4A
$GLGSV,2,1,08,78,21,158,16,66,16,071,19,82,32,230,20,77,45,097,20*65
$GLGSV,2,2,08,83,31,299,24,81,04,189,15,67,47,016,24,68,28,307,19*62
$GPGGA,034900.0,3206.957453,N,03501.366446,E,1,09,0.7,182.2,M,19.0,M,,*51
$GPVTG,254.1,T,251.2,M,43.3,N,80.2,K,A*2B
$GPRMC,034900.0,A,3206.957453,N,03501.366446,E,43.3,254.1,120416,3.0,E,A*32
$GPGSA,A,2,01,03,09,11,17,19,22,23,31,,,,1.0,0.7,0.8*3B
$GNGSA,A,2,01,03,09,11,17,19,22,23,31,,,,1.0,0.7,0.8*25
$GNGSA,A,2,66,67,68,77,78,82,83,,,,,,1.0,0.7,0.8*22
$GPGSV,3,1,11,01,63,191,25,03,59,345,20,09,21,251,23,11,36,192,24*7A
$GPGSV,3,2,11,17,13,285,20,19,05,310,21,22,59,066,21,23,52,270,24*77
$GPGSV,3,3,11,31,28,047,19,16,00,132,,26,06,104,*4A
$GLGSV,2,1,08,78,21,158,16,66,16,071,16,82,32,230,19,77,45,097,20*60
$GLGSV,2,2,08,83,31,299,15,81,04,189,15,67,47,016,25,68,28,307,17*6F
$GPGGA,034901.0,3206.954706,N,03501.354222,E,1,09,0.7,182.1,M,19.0,M,,*56
$GPVTG,252.2,T,249.3,M,44.3,N,82.1,K,A*20
$GPRMC,034901.0,A,3206.954706,N,03501.354222,E,44.3,252.2,120416,3.0,E,A*34
$GPGSA,A,2,01,03,09,11,17,19,22,23,31,,,,1.0,0.7,0.8*3B
$GNGSA,A,2,01,03,09,11,17,19,22,23,31,,,,1.0,0.7,0.8*25
$GNGSA,A,2,66,67,68,77,78,82,83,,,,,,1.0,0.7,0.8*22
$GPGSV,3,1,11,01,63,191,26,03,59,345,19,09,21,251,22,11,36,192,29*7F
$GPGSV,3,2,11,17,13,285,17,19,05,310,17,22,59,066,23,23,52,270,19*7A
$GPGSV,3,3,11,31,28,047,19,16,00,132,,26,06,104,*4A
$GLGSV,2,1,08,78,21,158,16,66,16,071,20,82,32,230,19,77,45,097,20*65
$GLGSV,2,2,08,83,31,299,17,81,04,189,15,67,47,016,24,68,28,307,17*6C
$GPGGA,034902.0,3206.951675,N,03501.340427,E,1,09,0.7,180.8,M,19.0,M,,*58
$GPVTG,251.1,T,248.2,M,44.9,N,83.2,K,A*28
$GPRMC,034902.0,A,3206.951675,N,03501.340427,E,44.9,251.1,120416,3.0,E,A*3B
$GPGSA,A,2,01,03,09,11,17,19,22,23,31,,,,1.0,0.7,0.8*3B
$GNGSA,A,2,01,03,09,11,17,19,22,23,31,,,,1.0,0.7,0.8*25
$GNGSA,A,2,66,67,68,77,78,82,83,,,,,,1.0,0.7,0.8*22
$GPGSV,3,1,11,01,63,191,25,03,59,345,23,09,21,251,20,11,36,192,29*77
$GPGSV,3,2,11,17,13,285,19,19,05,310,17,22,59,066,22,23,52,270,19*75
$GPGSV,3,3,11,31,28,047,19,16,00,132,,26,06,104,*4A
$GLGSV,2,1,08,78,21,158,16,66,16,071,21,82,32,230,16,77,45,097,20*6B
$GLGSV,2,2,08,83,31,299,19,81,04,189,15,67,47,016,19,68,28,307,17*6C
$GPGGA,034903.0,3206.948343,N,03501.327089,E,1,08,0.7,180.5,M,19.0,M,,*5C
$GPVTG,250.6,T,247.6,M,45.1,N,83.5,K,A*2B
$GPRMC,034903.0,A,3206.948343,N,03501.327089,E,45.1,250.6,120416,3.0,E,A*3C
$GPGSA,A,2,01,03,09,11,17,19,22,23,,,,,1.0,0.7,0.8*39
$GNGSA,A,2,01,03,09,11,17,19,22,23,,,,,1.0,0.7,0.8*27
$GNGSA,A,2,66,67,68,77,78,82,83,,,,,,1.0,0.7,0.8*22
$GPGSV,3,1,11,01,63,191,25,03,59,345,23,09,21,251,21,11,36,192,29*76
$GPGSV,3,2,11,17,13,285,19,19,05,310,16,22,59,066,21,23,52,270,19*77
$GPGSV,3,3,11,26,06,104,14,31,28,047,19,16,00,132,*4F
$GLGSV,2,1,08,78,21,158,16,66,16,071,22,82,32,230,22,77,45,097,20*6F
$GLGSV,2,2,08,83,31,299,19,81,04,189,15,67,47,016,19,68,28,307,17*6C
$GPGGA,034904.0,3206.944156,N,03501.311483,E,1,09,0.7,180.0,M,19.0,M,,*5E
$GPVTG,250.3,T,247.3,M,47.1,N,87.2,K,A*2A
$GPRMC,034904.0,A,3206.944156,N,03501.311483,E,47.1,250.3,120416,3.0,E,A*3D
$GPGSA,A,2,01,03,09,11,17,19,22,23,26,,,,1.0,0.7,0.7*32
$GNGSA,A,2,01,03,09,11,17,19,22,23,26,,,,1.0,0.7,0.7*2C
$GNGSA,A,2,66,67,68,77,78,82,83,,,,,,1.0,0.7,0.7*2D
$GPGSV,3,1,11,01,63,191,25,03,59,345,21,09,21,251,20,11,36,192,29*75
$GPGSV,3,2,11,17,13,285,19,19,05,310,16,22,59,066,22,23,52,270,19*74
$GPGSV,3,3,11,26,06,104,15,31,28,047,19,16,00,132,*4E
$GLGSV,2,1,08,78,21,158,16,66,16,071,21,82,32,230,21,77,45,097,20*6F
$GLGSV,2,2,08,83,31,299,15,81,04,189,15,67,47,016,18,68,28,307,17*61
$GPGGA,034905.0,3206.938318,N,03501.293154,E,1,09,0.7,180.9,M,19.0,M,,*51
$GPVTG,250.4,T,247.4,M,50.7,N,93.8,K,A*25
$GPRMC,034905.0,A,3206.938318,N,03501.293154,E,50.7,250.4,120416,3.0,E,A*3C
$GPGSA,A,2,01,03,09,11,17,19,22,23,26,,,,1.0,0.7,0.7*32
$GNGSA,A,2,01,03,09,11,17,19,22,23,26,,,,1.0,0.7,0.7*2C
$GNGSA,A,2,66,67,68,77,82,83,,,,,,,1.0,0.7,0.7*22
$GPGSV,3,1,11,01,63,191,26,03,59,345,20,09,21,251,20,11,36,192,29*77
$GPGSV,3,2,11,17,13,285,19,19,05,310,16,22,59,066,19,23,52,270,19*7C
$GPGSV,3,3,11,26,06,104,14,31,28,047,19,16,00,132,*4F
$GLGSV,2,1,08,78,21,158,16,66,16,071,20,82,32,230,22,77,45,097,20*6D
$GLGSV,2,2,08,83,31,299,15,81,04,189,15,67,47,016,18,68,28,307,17*61
$GPGGA,034906.0,3206.932885,N,03501.278696,E,1,09,0.8,181.1,M,19.0,M,,*5D
$GPVTG,249.3,T,246.3,M,49.7,N,92.0,K,A*2D
$GPRMC,034906.0,A,3206.932885,N,03501.278696,E,49.7,249.3,120416,3.0,E,A*31
$GPGSA,A,2,01,03,09,11,17,19,22,23,26,,,,1.0,0.8,0.7*3D
$GNGSA,A,2,01,03,09,11,17,19,22,23,26,,,,1.0,0.8,0.7*23
$GNGSA,A,2,66,67,68,82,83,,,,,,,,1.0,0.8,0.7*2D
$GPGSV,3,1,11,01,63,191,26,03,59,345,22,09,21,251,20,11,36,192,29*75
$GPGSV,3,2,11,17,13,285,14,19,05,310,16,22,59,066,21,23,52,270,12*71
$GPGSV,3,3,11,26,06,104,14,31,28,047,19,16,00,132,*4F
$GLGSV,2,1,08,78,21,158,12,66,16,071,18,82,32,230,21,77,45,097,20*61
$GLGSV,2,2,08,83,31,299,16,81,04,189,15,67,47,016,18,68,28,307,17*62
$GPGGA,034907.0,3206.929116,N,03501.257374,E,1,09,0.7,180.0,M,19.0,M,,*5E
$GPVTG,249.7,T,246.7,M,53.7,N,99.5,K,A*28
$GPRMC,034907.0,A,3206.929116,N,03501.257374,E,53.7,249.7,120416,3.0,E,A*32
$GPGSA,A,2,01,03,09,11,17,19,22,23,26,,,,1.0,0.7,0.7*32
$GNGSA,A,2,01,03,09,11,17,19,22,23,26,,,,1.0,0.7,0.7*2C
$GNGSA,A,2,66,67,68,78,82,83,,,,,,,1.0,0.7,0.7*2D
$GPGSV,3,1,11,01,63,191,28,03,59,345,23,09,21,251,22,11,36,192,31*71
$GPGSV,3,2,11,17,13,285,19,19,05,310,16,22,59,066,22,23,52,270,18*75
$GPGSV,3,3,11,26,06,104,14,31,28,047,10,16,00,132,*46
$GLGSV,2,1,08,78,21,158,12,66,16,071,20,82,32,230,23,77,45,097,20*68
$GLGSV,2,2,08,83,31,299,18,81,04,189,15,67,47,016,19,68,28,307,17*6D
$GPGGA,034908.0,3206.922650,N,03501.239716,E,1,10,0.6,179.9,M,19.0,M,,*51
$GPVTG,246.7,T,243.7,M,53.4,N,98.8,K,A*2D
$GPRMC,034908.0,A,3206.922650,N,03501.239716,E,53.4,246.7,120416,3.0,E,A*37
$GPGSA,A,2,01,03,09,11,17,19,22,23,26,31,,,1.0,0.6,0.7*31
$GNGSA,A,2,01,03,09,11,17,19,22,23,26,31,,,1.0,0.6,0.7*2F
$GNGSA,A,2,66,67,68,78,82,83,,,,,,,1.0,0.6,0.7*2C
$GPGSV,3,1,11,01,63,191,28,03,59,345,23,09,21,251,22,11,36,192,32*72
$GPGSV,3,2,11,17,13,285,19,19,05,310,16,22,59,066,23,23,52,270,18*74
$GPGSV,3,3,11,26,06,104,14,31,28,047,10,16,00,132,*46
$GLGSV,2,1,08,78,21,158,12,66,16,071,22,82,32,230,24,77,45,097,20*6D
$GLGSV,2,2,08,83,31,299,17,81,04,189,15,67,47,016,17,68,28,307,17*6C
$GPGGA,034909.0,3206.915784,N,03501.224664,E,1,10,0.7,180.1,M,19.0,M,,*5B
$GPVTG,245.2,T,242.3,M,52.0,N,96.2,K,A*2F
$GPRMC,034909.0,A,3206.915784,N,03501.224664,E,52.0,245.2,120416,3.0,E,A*31
$GPGSA,A,2,01,03,09,11,17,19,22,23,26,31,,,1.0,0.7,0.7*30
$GNGSA,A,2,01,03,09,11,17,19,22,23,26,31,,,1.0,0.7,0.7*2E
$GNGSA,A,2,66,67,78,82,83,,,,,,,,1.0,0.7,0.7*23
$GPGSV,3,1,11,01,63,191,27,03,59,345,22,09,21,251,23,11,36,192,31*7E
$GPGSV,3,2,11,17,13,285,17,19,05,310,16,22,59,066,23,23,52,270,19*7B
$GPGSV,3,3,11,26,06,104,14,31,28,047,15,16,00,132,*43
$GLGSV,2,1,08,78,21,158,12,66,16,071,22,82,32,230,23,77,45,097,20*6A
$GLGSV,2,2,08,83,31,299,17,81,04,189,15,67,47,016,19,68,28,307,17*62
$GPGGA,034910.0,3206.909413,N,03501.213471,E,1,10,0.7,178.4,M,19.0,M,,*53
$GPVTG,243.6,T,240.7,M,49.6,N,91.9,K,A*2B
$GPRMC,034910.0,A,3206.909413,N,03501.213471,E,49.6,243.6,120416,3.0,E,A*35
$GPGSA,A,2,01,03,09,11,17,19,22,23,26,31,,,1.0,0.7,0.7*30
$GNGSA,A,2,01,03,09,11,17,19,22,23,26,31,,,1.0,0.7,0.7*2E
$GNGSA,A,2,66,67,78,82,83,,,,,,,,1.0,0.7,0.7*23
$GPGSV,3,1,11,01,63,191,24,03,59,345,22,09,21,251,21,11,36,192,29*76
$GPGSV,3,2,11,17,13,285,20,19,05,310,16,22,59,066,22,23,52,270,18*7F
$GPGSV,3,3,11,26,06,104,14,31,28,047,15,16,00,132,*43
$GLGSV,2,1,08,78,21,158,15,66,16,071,22,82,32,230,22,77,45,097,20*6C
$GLGSV,2,2,08,83,31,299,17,81,04,189,15,67,47,016,18,68,28,307,17*63
$GPGGA,034911.0,3206.901440,N,03501.202763,E,1,09,0.7,178.2,M,19.0,M,,*52
$GPVTG,241.4,T,238.4,M,48.2,N,89.3,K,A*21
$GPRMC,034911.0,A,3206.901440,N,03501.202763,E,48.2,241.4,120416,3.0,E,A*3F
$GPGSA,A,2,01,03,09,11,17,22,23,26,31,,,,1.0,0.7,0.8*37
$GNGSA,A,2,01,03,09,11,17,22,23,26,31,,,,1.0,0.7,0.8*29
$GNGSA,A,2,66,67,78,82,83,,,,,,,,1.0,0.7,0.8*2C
$GPGSV,3,1,11,01,63,191,24,03,59,345,24,09,21,251,23,11,36,192,30*7A
$GPGSV,3,2,11,17,13,285,23,19,05,310,16,22,59,066,23,23,52,270,18*7D
$GPGSV,3,3,11,26,06,104,14,31,28,047,15,16,00,132,*43
$GLGSV,2,1,08,78,21,158,15,66,16,071,24,82,32,230,25,77,45,097,20*6D
$GLGSV,2,2,08,83,31,299,17,81,04,189,15,67,47,016,17,68,28,307,17*6C
$GPGGA,034912.0,3206.893652,N,03501.191651,E,1,09,0.7,178.4,M,19.0,M,,*55
$GPVTG,239.0,T,236.0,M,47.3,N,87.6,K,A*25
$GPRMC,034912.0,A,3206.893652,N,03501.191651,E,47.3,239.0,120416,3.0,E,A*3B
$GPGSA,A,2,01,03,09,11,17,22,23,26,31,,,,1.0,0.7,0.8*37
$GNGSA,A,2,01,03,09,11,17,22,23,26,31,,,,1.0,0.7,0.8*29
$GNGSA,A,2,66,67,78,82,83,,,,,,,,1.0,0.7,0.8*2C
$GPGSV,3,1,11,01,63,191,23,03,59,345,21,09,21,251,21,11,36,192,28*73
$GPGSV,3,2,11,17,13,285,20,19,05,310,16,22,59,066,21,23,52,270,18*7C
$GPGSV,3,3,11,26,06,104,14,31,28,047,15,16,00,132,*43
$GLGSV,2,1,08,78,21,158,17,66,16,071,22,82,32,230,22,77,45,097,20*6E
$GLGSV,2,2,08,83,31,299,17,81,04,189,15,67,47,016,17,68,28,307,11*6A
$GPGGA,034913.0,3206.886030,N,03501.179079,E,1,09,0.7,176.9,M,19.0,M,,*5B
$GPVTG,237.6,T,234.6,M,47.7,N,88.3,K,A*27
$GPRMC,034913.0,A,3206.886030,N,03501.179079,E,47.7,237.6,120416,3.0,E,A*3A
$GPGSA,A,2,01,03,09,11,17,22,23,26,31,,,,1.0,0.7,0.8*37
$GNGSA,A,2,01,03,09,11,17,22,23,26,31,,,,1.0,0.7,0.8*29
$GNGSA,A,2,66,67,68,78,82,83,,,,,,,1.0,0.7,0.8*22
$GPGSV,3,1,11,01,63,191,24,03,59,345,24,09,21,251,23,11,36,192,29*72
$GPGSV,3,2,11,17,13,285,21,19,05,310,16,22,59,066,20,23,52,270,15*71
$GPGSV,3,3,11,26,06,104,17,31,28,047,15,16,00,132,*40
$GLGSV,2,1,08,78,21,158,17,66,16,071,24,82,32,230,24,77,45,097,20*6E
$GLGSV,2,2,08,83,31,299,17,81,04,189,12,67,47,016,17,68,28,307,11*6D
$GPGGA,034914.0,3206.877014,N,03501.164477,E,1,09,0.7,176.9,M,19.0,M,,*52
$GPVTG,237.0,T,234.0,M,49.4,N,91.6,K,A*27
$GPRMC,034914.0,A,3206.877014,N,03501.164477,E,49.4,237.0,120416,3.0,E,A*38
$GPGSA,A,2,01,03,09,11,17,22,23,26,31,,,,1.0,0.7,0.8*37
$GNGSA,A,2,01,03,09,11,17,22,23,26,31,,,,1.0,0.7,0.8*29
$GNGSA,A,2,66,67,68,78,82,83,,,,,,,1.0,0.7,0.8*22
$GPGSV,3,1,11,01,63,191,22,03,59,345,23,09,21,251,22,11,36,192,29*72
$GPGSV,3,2,11,17,13,285,20,19,05,310,16,22,59,066,22,23,52,270,17*70
$GPGSV,3,3,11,26,06,104,22,31,28,047,15,16,00,132,*46
$GLGSV,2,1,08,78,21,158,17,66,16,071,24,82,32,230,25,77,45,097,20*6F
$GLGSV,2,2,08,83,31,299,17,81,04,189,22,67,47,016,17,68,28,307,18*67
$GPGGA,034915.0,3206.870992,N,03501.156851,E,1,09,0.7,174.0,M,19.0,M,,*51
$GPVTG,235.6,T,232.6,M,45.5,N,84.2,K,A*2E
$GPRMC,034915.0,A,3206.870992,N,03501.156851,E,45.5,235.6,120416,3.0,E,A*39
$GPGSA,A,2,01,03,09,11,17,22,23,26,31,,,,1.0,0.7,0.8*37
$GNGSA,A,2,01,03,09,11,17,22,23,26,31,,,,1.0,0.7,0.8*29
$GNGSA,A,2,66,67,68,78,82,83,,,,,,,1.0,0.7,0.8*22
$GPGSV,3,1,11,01,63,191,22,03,59,345,23,09,21,251,21,11,36,192,28*70
$GPGSV,3,2,11,17,13,285,22,19,05,310,9,22,59,066,20,23,52,270,17*4E
$GPGSV,3,3,11,26,06,104,22,31,28,047,15,16,00,132,*46
$GLGSV,2,1,08,78,21,158,15,66,16,071,23,82,32,230,24,77,45,097,20*6B
$GLGSV,2,2,08,83,31,299,17,81,04,189,21,67,47,016,17,68,28,307,18*64
$GPGGA,034916.0,3206.864102,N,03501.144701,E,1,10,0.6,173.0,M,19.0,M,,*51
$GPVTG,236.4,T,233.4,M,45.4,N,84.0,K,A*2F
$GPRMC,034916.0,A,3206.864102,N,03501.144701,E,45.4,236.4,120416,3.0,E,A*37
$GPGSA,A,2,01,03,09,11,17,19,22,23,26,31,,,1.0,0.6,0.7*31
$GNGSA,A,2,01,03,09,11,17,19,22,23,26,31,,,1.0,0.6,0.7*2F
$GNGSA,A,2,66,67,68,78,82,83,,,,,,,1.0,0.6,0.7*2C
$GPGSV,3,1,11,01,63,191,22,03,59,345,23,09,21,251,19,11,36,192,29*7A
$GPGSV,3,2,11,17,13,285,22,19,05,310,19,22,59,066,21,23,52,270,15*7C
$GPGSV,3,3,11,26,06,104,22,31,28,047,15,16,00,132,*46
$GLGSV,2,1,08,78,21,158,15,66,16,071,23,82,32,230,25,77,45,097,20*6A
$GLGSV,2,2,08,83,31,299,17,81,04,189,20,67,47,016,13,68,28,307,18*61
$GPGGA,034917.0,3206.860143,N,03501.126950,E,1,09,0.7,171.0,M,19.0,M,,*54
$GPVTG,242.4,T,239.5,M,48.2,N,89.4,K,A*25
$GPRMC,034917.0,A,3206.860143,N,03501.126950,E,48.2,242.4,120416,3.0,E,A*31
$GPGSA,A,2,01,03,09,11,17,19,22,23,26,,,,1.0,0.7,0.7*32
$GNGSA,A,2,01,03,09,11,17,19,22,23,26,,,,1.0,0.7,0.7*2C
$GNGSA,A,2,66,67,68,78,82,83,,,,,,,1.0,0.7,0.7*2D
$GPGSV,3,1,11,01,63,191,23,03,59,345,23,09,21,251,18,11,36,192,28*7B
$GPGSV,3,2,11,17,13,285,22,19,05,310,18,22,59,066,21,23,52,270,15*7D
$GPGSV,3,3,11,26,06,104,23,31,28,047,15,16,00,132,*47
$GLGSV,2,1,08,78,21,158,15,66,16,071,21,82,32,230,24,77,45,097,20*69
$GLGSV,2,2,08,83,31,299,14,81,04,189,20,67,47,016,13,68,28,307,18*62
$GPGGA,034918.0,3206.855391,N,03501.113389,E,1,09,0.7,169.8,M,19.0,M,,*59
$GPVTG,243.3,T,240.3,M,47.4,N,87.8,K,A*20
$GPRMC,034918.0,A,3206.855391,N,03501.113389,E,47.4,243.3,120416,3.0,E,A*32
$GPGSA,A,2,01,03,09,11,17,19,22,23,26,,,,1.0,0.7,0.7*32
$GNGSA,A,2,01,03,09,11,17,19,22,23,26,,,,1.0,0.7,0.7*2C
$GNGSA,A,2,66,67,68,78,82,83,,,,,,,1.0,0.7,0.7*2D
$GPGSV,3,1,11,01,63,191,21,03,59,345,23,09,21,251,20,11,36,192,27*7D
$GPGSV,3,2,11,17,13,285,23,19,05,310,23,22,59,066,18,23,52,270,19*72
$GPGSV,3,3,11,26,06,104,24,31,28,047,15,16,00,132,*40
$GLGSV,2,1,08,78,21,158,15,66,16,071,23,82,32,230,25,77,45,097,20*6A
$GLGSV,2,2,08,83,31,299,19,81,04,189,19,67,47,016,17,68,28,307,17*6E
$GPGGA,034919.0,3206.851462,N,03501.099509,E,1,09,0.7,169.1,M,19.0,M,,*53
$GPVTG,245.0,T,242.0,M,47.2,N,87.5,K,A*2F
$GPRMC,034919.0,A,3206.851462,N,03501.099509,E,47.2,245.0,120416,3.0,E,A*32
$GPGSA,A,2,01,03,09,11,17,19,22,23,26,,,,1.0,0.7,0.7*32
$GNGSA,A,2,01,03,09,11,17,19,22,23,26,,,,1.0,0.7,0.7*2C
$GNGSA,A,2,66,67,68,78,82,83,,,,,,,1.0,0.7,0.7*2D
$GPGSV,3,1,11,01,63,191,25,03,59,345,25,09,21,251,20,11,36,192,29*71
$GPGSV,3,2,11,17,13,285,22,19,05,310,26,22,59,066,22,23,52,270,16*70
$GPGSV,3,3,11,26,06,104,24,31,28,047,15,16,00,132,*40
$GLGSV,2,1,08,78,21,158,15,66,16,071,22,82,32,230,26,77,45,097,20*68
$GLGSV,2,2,08,83,31,299,19,81,04,189,23,67,47,016,17,68,28,307,17*67
$GPGGA,034920.0,3206.842222,N,03501.084554,E,1,09,0.7,168.0,M,19.0,M,,*5D
$GPVTG,242.0,T,239.0,M,49.3,N,91.3,K,A*2A
$GPRMC,034920.0,A,3206.842222,N,03501.084554,E,49.3,242.0,120416,3.0,E,A*34
$GPGSA,A,2,01,03,09,11,17,19,22,23,26,,,,1.0,0.7,0.7*32
$GNGSA,A,2,01,03,09,11,17,19,22,23,26,,,,1.0,0.7,0.7*2C
$GNGSA,A,2,66,67,68,78,82,83,,,,,,,1.0,0.7,0.7*2D
$GPGSV,3,1,11,01,63,191,26,03,59,345,27,09,21,251,20,11,36,192,28*71
$GPGSV,3,2,11,17,13,285,20,19,05,310,27,22,59,066,22,23,52,270,17*72
$GPGSV,3,3,11,26,06,104,22,31,28,047,15,16,00,132,*46
$GLGSV,2,1,08,78,21,158,15,66,16,071,23,82,32,230,26,77,45,097,20*69
$GLGSV,2,2,08,83,31,299,16,81,04,189,18,67,47,016,17,68,28,307,18*6F
$GPGGA,034921.0,3206.835824,N,03501.070316,E,1,09,0.7,164.5,M,19.0,M,,*52
$GPVTG,243.5,T,240.5,M,50.5,N,93.6,K,A*2C
$GPRMC,034921.0,A,3206.835824,N,03501.070316,E,50.5,243.5,120416,3.0,E,A*38
$GPGSA,A,2,01,03,09,11,17,19,22,23,26,,,,1.0,0.7,0.7*32
$GNGSA,A,2,01,03,09,11,17,19,22,23,26,,,,1.0,0.7,0.7*2C
$GNGSA,A,2,66,67,68,78,82,83,,,,,,,1.0,0.7,0.7*2D
$GPGSV,3,1,12,01,63,191,25,03,60,347,26,09,22,253,19,11,35,192,28*70
$GPGSV,3,2,12,17,13,285,19,19,05,309,25,22,59,067,24,23,52,270,17*76
$GPGSV,3,3,12,26,06,104,24,31,28,047,10,06,,,,16,00,130,*42
$GLGSV,3,1,09,78,22,158,15,66,16,071,23,82,32,230,25,77,45,095,20*6B
$GLGSV,3,2,09,83,31,298,17,81,04,189,19,67,47,018,17,68,28,307,18*60
$GLGSV,3,3,09,84,,,*60
$GPGGA,034922.0,3206.829132,N,03501.053137,E,1,10,0.6,163.9,M,19.0,M,,*50
$GPVTG,244.2,T,241.2,M,51.7,N,95.8,K,A*21
$GPRMC,034922.0,A,3206.829132,N,03501.053137,E,51.7,244.2,120416,3.0,E,A*3B
$GPGSA,A,2,01,03,09,11,17,19,22,23,26,31,,,1.0,0.6,0.7*31
$GNGSA,A,2,01,03,09,11,17,19,22,23,26,31,,,1.0,0.6,0.7*2F
$GNGSA,A,2,66,67,68,78,82,83,,,,,,,1.0,0.6,0.7*2C
$GPGSV,3,1,12,01,63,191,22,03,60,347,25,09,22,253,20,11,35,192,27*71
$GPGSV,3,2,12,17,13,285,21,19,05,309,23,22,59,067,21,23,52,270,18*71
$GPGSV,3,3,12,26,06,104,20,31,28,047,10,06,,,,16,00,130,*46
$GLGSV,3,1,09,78,22,158,15,66,16,071,20,82,32,230,22,77,45,095,11*6D
$GLGSV,3,2,09,83,31,298,16,81,04,189,19,67,47,018,13,68,28,307,18*65
$GLGSV,3,3,09,84,,,*60
$GPGGA,034923.0,3206.821491,N,03501.036110,E,1,10,0.6,163.1,M,19.0,M,,*5B
$GPVTG,243.8,T,240.8,M,52.9,N,98.1,K,A*2E
$GPRMC,034923.0,A,3206.821491,N,03501.036110,E,52.9,243.8,120416,3.0,E,A*38
$GPGSA,A,2,01,03,09,11,17,19,22,23,26,31,,,0.9,0.6,0.7*39
$GNGSA,A,2,01,03,09,11,17,19,22,23,26,31,,,0.9,0.6,0.7*27
$GNGSA,A,2,66,67,68,77,78,82,83,,,,,,0.9,0.6,0.7*24
$GPGSV,3,1,12,01,63,191,22,03,60,347,25,09,22,253,20,11,35,192,25*73
$GPGSV,3,2,12,17,13,285,21,19,05,309,22,22,59,067,21,23,52,270,23*78
$GPGSV,3,3,12,26,06,104,22,31,28,047,10,06,,,,16,00,130,*44
$GLGSV,3,1,09,78,22,158,15,66,16,071,20,82,32,230,23,77,45,095,11*6C
$GLGSV,3,2,09,83,31,298,16,81,04,189,19,67,47,018,17,68,28,307,21*6B
$GLGSV,3,3,09,84,,,*60
$GPGGA,034924.0,3206.816394,N,03501.021143,E,1,10,0.6,162.3,M,19.0,M,,*59
$GPVTG,244.6,T,241.6,M,51.6,N,95.5,K,A*2D
$GPRMC,034924.0,A,3206.816394,N,03501.021143,E,51.6,244.6,120416,3.0,E,A*3C
$GPGSA,A,2,01,03,09,11,17,19,22,23,26,31,,,0.9,0.6,0.7*39
$GNGSA,A,2,01,03,09,11,17,19,22,23,26,31,,,0.9,0.6,0.7*27
$GNGSA,A,2,66,67,68,77,78,82,83,,,,,,0.9,0.6,0.7*24
$GPGSV,3,1,12,01,63,191,22,03,60,347,25,09,22,253,22,11,35,192,25*71
$GPGSV,3,2,12,17,13,285,18,19,05,309,21,22,59,067,21,23,52,270,24*76
$GPGSV,3,3,12,26,06,104,20,31,28,047,10,06,,,,16,00,130,*46
$GLGSV,3,1,09,78,22,158,15,66,16,071,21,82,32,230,22,77,45,095,11*6C
$GLGSV,3,2,09,83,31,298,16,81,04,189,16,67,47,018,18,68,28,307,18*61
$GLGSV,3,3,09,84,,,*60
$GPGGA,034925.0,3206.810869,N,03501.005284,E,1,10,0.6,161.9,M,19.0,M,,*50
$GPVTG,245.4,T,242.4,M,51.7,N,95.7,K,A*2C
$GPRMC,034925.0,A,3206.810869,N,03501.005284,E,51.7,245.4,120416,3.0,E,A*3E
$GPGSA,A,2,01,03,09,11,17,19,22,23,26,31,,,0.9,0.6,0.7*39
$GNGSA,A,2,01,03,09,11,17,19,22,23,26,31,,,0.9,0.6,0.7*27
$GNGSA,A,2,66,67,68,77,78,82,83,,,,,,0.9,0.6,0.7*24
$GPGSV,3,1,12,01,63,191,15,03,60,347,24,09,22,253,21,11,35,192,27*75
$GPGSV,3,2,12,17,13,285,17,19,05,309,20,22,59,067,17,23,52,270,23*7A
$GPGSV,3,3,12,26,06,104,20,31,28,047,10,06,,,,16,00,130,*46
$GLGSV,3,1,09,78,22,158,15,66,16,071,21,82,32,230,22,77,45,095,11*6C
$GLGSV,3,2,09,83,31,298,16,81,04,189,16,67,47,018,18,68,28,307,18*61
$GLGSV,3,3,09,84,,,*60
$GPGGA,034926.0,3206.804456,N,03500.989737,E,1,10,0.6,160.6,M,19.0,M,,*59
$GPVTG,245.1,T,242.1,M,51.7,N,95.7,K,A*2C
$GPRMC,034926.0,A,3206.804456,N,03500.989737,E,51.7,245.1,120416,3.0,E,A*3C
$GPGSA,A,2,01,03,09,11,17,19,22,23,26,31,,,0.9,0.6,0.7*39
$GNGSA,A,2,01,03,09,11,17,19,22,23,26,31,,,0.9,0.6,0.7*27
$GNGSA,A,2,66,67,68,77,78,82,83,,,,,,0.9,0.6,0.7*24
$GPGSV,3,1,12,01,63,191,21,03,60,347,19,09,22,253,23,11,35,192,27*7E
$GPGSV,3,2,12,17,13,285,19,19,05,309,19,22,59,067,24,23,52,270,28*75
$GPGSV,3,3,12,26,06,104,20,31,28,047,10,06,,,,16,00,130,*46
$GLGSV,3,1,09,78,22,158,15,66,16,071,19,82,32,230,26,77,45,095,11*63
$GLGSV,3,2,09,83,31,298,16,81,04,189,18,67,47,018,23,68,28,307,18*67
$GLGSV,3,3,09,84,,,*60
$GPGGA,034927.0,3206.801037,N,03500.974653,E,1,10,0.6,160.3,M,19.0,M,,*5A
$GPVTG,250.5,T,247.6,M,50.6,N,93.7,K,A*28
$GPRMC,034927.0,A,3206.801037,N,03500.974653,E,50.6,250.5,120416,3.0,E,A*3A
$GPGSA,A,2,01,03,09,11,17,19,22,23,26,31,,,0.9,0.6,0.7*39
$GNGSA,A,2,01,03,09,11,17,19,22,23,26,31,,,0.9,0.6,0.7*27
$GNGSA,A,2,66,67,68,77,78,82,83,,,,,,0.9,0.6,0.7*24
$GPGSV,3,1,12,01,63,191,19,03,60,347,18,09,22,253,25,11,35,192,24*71
$GPGSV,3,2,12,17,13,285,20,19,05,309,19,22,59,067,25,23,52,270,27*71
$GPGSV,3,3,12,26,06,104,20,31,28,047,10,06,,,,16,00,130,*46
$GLGSV,3,1,09,78,22,158,15,66,16,071,20,82,32,230,19,77,45,095,11*65
$GLGSV,3,2,09,83,31,298,18,81,04,189,18,67,47,018,24,68,28,307,14*62
$GLGSV,3,3,09,84,,,*60
$GPGGA,034928.0,3206.798078,N,03500.958382,E,1,10,0.7,159.2,M,19.0,M,,*5C
$GPVTG,256.2,T,253.3,M,48.6,N,89.9,K,A*25
$GPRMC,034928.0,A,3206.798078,N,03500.958382,E,48.6,256.2,120416,3.0,E,A*3E
$GPGSA,A,2,01,03,09,11,17,19,22,23,26,31,,,1.0,0.7,0.7*30
$GNGSA,A,2,01,03,09,11,17,19,22,23,26,31,,,1.0,0.7,0.7*2E
$GNGSA,A,2,66,67,68,77,82,83,,,,,,,1.0,0.7,0.7*22
$GPGSV,3,1,12,01,63,191,19,03,60,347,17,09,22,253,17,11,35,192,25*7E
$GPGSV,3,2,12,17,13,285,20,19,05,309,19,22,59,067,23,23,52,270,22*72
$GPGSV,3,3,12,26,06,104,20,31,28,047,10,06,,,,16,00,130,*46
$GLGSV,3,1,09,78,22,158,12,66,16,071,20,82,32,230,26,77,45,095,15*6A
$GLGSV,3,2,09,83,31,298,20,81,04,189,18,67,47,018,26,68,28,307,19*66
$GLGSV,3,3,09,84,,,*60
$GPGGA,034929.0,3206.796301,N,03500.942319,E,1,09,0.7,158.5,M,19.0,M,,*59
$GPVTG,262.4,T,259.4,M,48.1,N,89.1,K,A*26
$GPRMC,034929.0,A,3206.796301,N,03500.942319,E,48.1,262.4,120416,3.0,E,A*33
$GPGSA,A,2,01,03,09,11,17,19,22,23,26,,,,1.0,0.7,0.7*32
$GNGSA,A,2,01,03,09,11,17,19,22,23,26,,,,1.0,0.7,0.7*2C
$GNGSA,A,2,66,67,68,77,78,82,83,,,,,,1.0,0.7,0.7*2D
$GPGSV,3,1,12,01,63,191,21,03,60,347,21,09,22,253,23,11,35,192,26*74
$GPGSV,3,2,12,17,13,285,14,19,05,309,19,22,59,067,22,23,52,270,27*71
$GPGSV,3,3,12,26,06,104,20,31,28,047,15,06,,,,16,00,130,*43
$GLGSV,3,1,09,78,22,158,21,66,16,071,20,82,32,230,21,77,45,095,15*6D
$GLGSV,3,2,09,83,31,298,25,81,04,189,18,67,47,018,24,68,28,307,20*6B
$GLGSV,3,3,09,84,,,*60
