$GPGSV,3,1,11,02,18,043,16,05,30,082,20,12,39,122,19,20,32,142,19*72
$GPGSV,3,2,11,21,35,223,33,25,76,095,15,29,57,338,14,31,30,295,18*72
$GPGSV,3,3,11,18,,,,24,01,170,,26,01,313,*75
$GLGSV,3,1,09,86,42,289,15,75,65,223,16,74,21,171,,70,16,101,*63
$GLGSV,3,2,09,69,10,047,,84,07,049,,87,01,251,,85,45,012,*61
$GLGSV,3,3,09,71,02,146,*5B
$GPGGA,,,,,,0,,,,,,,,*66
$GPVTG,,T,,M,,N,,K,N*2C
$GPRMC,,V,,,,,,,,,,N*53
$GPGSA,A,1,,,,,,,,,,,,,,,*1E
$GNGSA,A,1,,,,,,,,,,,,,,,*00
$GPGSV,3,1,11,02,18,043,,05,30,081,,12,39,122,,18,00,187,*77
$GPGSV,3,2,11,20,33,142,,21,35,223,,24,00,170,,25,76,098,*7C
$GPGSV,3,3,11,26,02,313,,29,57,340,,31,30,293,*49
$GLGSV,3,1,09,74,20,171,32,86,43,291,32,70,16,099,,75,63,222,*6E
$GLGSV,3,2,09,69,10,046,,84,07,050,,87,02,253,,85,44,014,*6E
$GLGSV,3,3,09,71,02,146,*5B
$GPGGA,,,,,,0,,,,,,,,*66
$GPVTG,,T,,M,,N,,K,N*2C
$GPRMC,,V,,,,,,,,,,N*53
$GPGSA,A,1,,,,,,,,,,,,,,,*1E
$GNGSA,A,1,,,,,,,,,,,,,,,*00
$GPGSV,3,1,11,20,33,142,27,21,35,223,25,25,76,098,29,29,57,340,30*7B
$GPGSV,3,2,11,02,18,043,,05,30,081,,12,39,122,,18,00,187,*74
$GPGSV,3,3,11,24,00,170,,26,02,313,,31,30,293,*47
$GLGSV,3,1,09,74,20,171,29,86,43,291,30,75,63,222,26,70,16,099,*62
$GLGSV,3,2,09,69,10,046,,84,07,050,,87,02,253,,85,44,014,*6E
$GLGSV,3,3,09,71,02,146,*5B
$GPGGA,,,,,,0,,,,,,,,*66
$GPVTG,,T,,M,,N,,K,N*2C
$GPRMC,,V,,,,,,,,,,N*53
$GPGSA,A,1,,,,,,,,,,,,,,,*1E
$GNGSA,A,1,,,,,,,,,,,,,,,*00
$GPGSV,3,1,11,12,39,122,34,20,33,142,23,21,35,223,32,25,76,098,30*73
$GPGSV,3,2,11,29,57,340,29,02,18,043,,05,30,081,,18,00,187,*79
$GPGSV,3,3,11,24,00,170,,26,02,313,,31,30,293,*47
$GLGSV,3,1,09,74,20,171,24,86,43,291,24,75,63,222,27,70,16,099,*6B
$GLGSV,3,2,09,69,10,046,,84,07,050,,87,02,253,,85,44,014,*6E
$GLGSV,3,3,09,71,02,146,*5B
$GPGGA,,,,,,0,,,,,,,,*66
$GPVTG,,T,,M,,N,,K,N*2C
$GPRMC,,V,,,,,,,,,,N*53
$GPGSA,A,1,,,,,,,,,,,,,,,*1E
$GNGSA,A,1,,,,,,,,,,,,,,,*00
$GPGSV,3,1,11,05,30,081,23,12,39,122,28,20,33,142,27,21,35,223,27*74
$GPGSV,3,2,11,25,76,098,26,29,57,340,24,31,30,293,22,02,18,043,*76
$GPGSV,3,3,11,18,00,187,,24,00,170,,26,02,313,*49
$GLGSV,3,1,09,74,20,171,27,86,43,291,26,75,63,222,18,85,44,014,24*68
$GLGSV,3,2,09,70,16,099,,69,10,046,,84,07,050,,87,02,253,*66
$GLGSV,3,3,09,71,02,146,*5B
$GPGGA,,,,,,0,,,,,,,,*66
$GPVTG,,T,,M,,N,,K,N*2C
$GPRMC,,V,,,,,,,,,,N*53
$GPGSA,A,1,,,,,,,,,,,,,,,*1E
$GNGSA,A,1,,,,,,,,,,,,,,,*00
$GPGSV,3,1,11,02,18,043,22,05,30,081,24,12,39,122,37,20,33,142,31*75
$GPGSV,3,2,11,21,35,223,36,25,76,098,32,29,57,340,31,31,30,293,36*7D
$GPGSV,3,3,11,18,00,187,,24,00,170,,26,02,313,*49
$GLGSV,3,1,09,74,20,171,29,86,43,291,34,75,63,222,31,69,10,046,21*6F
$GLGSV,3,2,09,85,44,014,22,70,16,099,,84,07,050,,87,02,253,*62
$GLGSV,3,3,09,71,02,146,*5B
$GPGGA,,,,,,0,,,,,,,,*66
$GPVTG,,T,,M,,N,,K,N*2C
$GPRMC,,V,,,,,,,,,,N*53
$GPGSA,A,1,,,,,,,,,,,,,,,*1E
$GNGSA,A,1,,,,,,,,,,,,,,,*00
$GPGSV,3,1,12,02,18,043,22,05,30,081,24,12,39,122,36,20,33,142,33*75
$GPGSV,3,2,12,21,35,223,40,25,76,098,33,29,57,340,32,31,30,293,40*7C
$GPGSV,3,3,12,40,,,31,18,00,187,,24,00,170,,26,02,313,*4C
$GLGSV,3,1,09,74,20,171,31,70,16,099,17,86,43,291,37,75,63,222,33*6E
$GLGSV,3,2,09,69,10,046,23,85,44,014,22,84,07,050,,87,02,253,*6F
$GLGSV,3,3,09,71,02,146,*5B
$GPGGA,,,,,,0,,,,,,,,*66
$GPVTG,,T,,M,,N,,K,N*2C
$GPRMC,,V,,,,,,,,,,N*53
$GPGSA,A,1,,,,,,,,,,,,,,,*1E
$GNGSA,A,1,,,,,,,,,,,,,,,*00
$GPGSV,3,1,12,02,18,043,23,05,30,081,24,12,39,122,35,20,33,142,30*74
$GPGSV,3,2,12,21,35,223,40,25,76,098,30,29,57,340,35,31,30,293,39*76
$GPGSV,3,3,12,40,,,31,18,00,187,,24,00,170,,26,02,313,*4C
$GLGSV,3,1,09,74,20,171,29,70,16,099,21,86,43,291,29,75,63,222,29*66
$GLGSV,3,2,09,69,10,046,20,85,44,014,19,84,07,050,,87,02,253,*64
$GLGSV,3,3,09,71,02,146,*5B
$GPGGA,,,,,,0,,,,,,,,*66
$GPVTG,,T,,M,,N,,K,N*2C
$GPRMC,,V,,,,,,,,,,N*53
$GPGSA,A,1,,,,,,,,,,,,,,,*1E
$GNGSA,A,1,,,,,,,,,,,,,,,*00
$GPGSV,3,1,12,02,18,043,29,05,30,081,21,12,39,122,39,20,33,142,37*70
$GPGSV,3,2,12,21,35,223,38,25,76,098,35,29,57,340,30,31,30,293,35*75
$GPGSV,3,3,12,40,,,33,18,00,187,,24,00,170,,26,02,313,*4E
$GLGSV,3,1,09,74,20,171,30,70,16,099,17,86,43,291,36,75,63,222,31*6C
$GLGSV,3,2,09,69,10,046,22,85,44,014,22,84,07,050,,87,02,253,*6E
$GLGSV,3,3,09,71,02,146,*5B
$GPGGA,,,,,,0,,,,,,,,*66
$GPVTG,,T,,M,,N,,K,N*2C
$GPRMC,,V,,,,,,,,,,N*53
$GPGSA,A,1,,,,,,,,,,,,,,,*1E
$GNGSA,A,1,,,,,,,,,,,,,,,*00
$GPGSV,3,1,12,02,18,043,25,05,30,081,26,12,39,122,35,20,33,142,32*72
$GPGSV,3,2,12,21,35,223,40,25,76,098,35,29,57,340,38,31,30,293,40*70
$GPGSV,3,3,12,40,,,30,18,00,187,,24,00,170,,26,02,313,*4D
$GLGSV,3,1,09,74,20,171,29,70,16,099,22,86,43,291,39,75,63,222,32*6E
$GLGSV,3,2,09,69,10,046,22,85,44,014,26,84,07,050,,87,02,253,*6A
$GLGSV,3,3,09,71,02,146,*5B
$GPGGA,,,,,,0,,,,,,,,*66
$GPVTG,,T,,M,,N,,K,N*2C
$GPRMC,,V,,,,,,,,,,N*53
$GPGSA,A,1,,,,,,,,,,,,,,,*1E
$GNGSA,A,1,,,,,,,,,,,,,,,*00
$GPGSV,3,1,12,02,18,043,27,05,30,081,27,12,39,122,38,20,33,142,30*7E
$GPGSV,3,2,12,21,35,223,40,25,76,098,36,29,57,340,38,31,30,293,42*71
$GPGSV,3,3,12,40,,,30,18,00,187,,24,00,170,,26,02,313,*4D
$GLGSV,3,1,09,74,20,171,24,70,16,099,25,86,43,291,37,75,63,222,30*68
$GLGSV,3,2,09,69,10,046,18,85,44,014,32,84,07,050,,87,02,253,*66
$GLGSV,3,3,09,71,02,146,*5B
$GPGGA,,,,,,0,,,,,,,,*66
$GPVTG,,T,,M,,N,,K,N*2C
$GPRMC,,V,,,,,,,,,,N*53
$GPGSA,A,1,,,,,,,,,,,,,,,*1E
$GNGSA,A,1,,,,,,,,,,,,,,,*00
$GPGSV,3,1,12,02,18,043,27,05,30,081,26,12,39,122,37,20,33,142,27*76
$GPGSV,3,2,12,21,35,223,37,25,76,098,31,29,57,340,37,31,30,293,41*7A
$GPGSV,3,3,12,40,,,29,18,00,187,,24,00,170,,26,02,313,*45
$GLGSV,3,1,09,74,20,171,25,70,16,099,26,86,43,291,37,75,63,222,32*68
$GLGSV,3,2,09,69,10,046,23,85,44,014,32,84,07,050,,87,02,253,*6E
$GLGSV,3,3,09,71,02,146,*5B
$GPGGA,,,,,,0,,,,,,,,*66
$GPVTG,,T,,M,,N,,K,N*2C
$GPRMC,,V,,,,,,,,,,N*53
$GPGSA,A,1,,,,,,,,,,,,,,,*1E
$GNGSA,A,1,,,,,,,,,,,,,,,*00
$GPGSV,3,1,12,02,18,043,32,05,30,081,30,12,39,122,36,20,33,142,36*74
$GPGSV,3,2,12,21,35,223,41,25,76,098,41,29,57,340,38,31,30,293,37*72
$GPGSV,3,3,12,40,,,34,18,00,187,,24,00,170,,26,02,313,*49
$GLGSV,3,1,09,74,20,171,28,70,16,099,25,86,43,291,37,75,63,222,32*66
$GLGSV,3,2,09,69,10,046,25,85,44,014,30,84,07,050,,87,02,253,*6A
$GLGSV,3,3,09,71,02,146,*5B
$GPGGA,,,,,,0,,,,,,,,*66
$GPVTG,,T,,M,,N,,K,N*2C
$GPRMC,,V,,,,,,,,,,N*53
$GPGSA,A,1,,,,,,,,,,,,,,,*1E
$GNGSA,A,1,,,,,,,,,,,,,,,*00
$GPGSV,3,1,12,02,18,043,28,05,30,081,27,12,39,122,33,20,33,142,29*72
$GPGSV,3,2,12,21,35,223,37,25,76,098,37,29,57,340,37,31,30,293,39*73
$GPGSV,3,3,12,40,,,34,18,00,187,,24,00,170,,26,02,313,*49
$GLGSV,3,1,09,74,20,171,25,70,16,099,24,86,43,291,40,75,63,222,36*6E
$GLGSV,3,2,09,69,10,046,22,85,44,014,31,84,07,050,,87,02,253,*6C
$GLGSV,3,3,09,71,02,146,*5B
$GPGGA,,,,,,0,,,,,,,,*66
$GPVTG,,T,,M,,N,,K,N*2C
$GPRMC,,V,,,,,,,,,,N*53
$GPGSA,A,1,,,,,,,,,,,,,,,*1E
$GNGSA,A,1,,,,,,,,,,,,,,,*00
$GPGSV,3,1,12,02,18,043,31,05,30,081,22,12,39,122,33,20,33,142,30*77
$GPGSV,3,2,12,21,35,223,37,25,76,098,31,29,57,340,32,31,30,293,43*7D
$GPGSV,3,3,12,40,,,34,18,00,187,,24,00,170,,26,02,313,*49
$GLGSV,3,1,09,74,20,171,25,70,16,099,21,86,43,291,43,75,63,222,37*69
$GLGSV,3,2,09,69,10,046,17,84,07,050,12,85,44,014,29,87,02,253,*60
$GLGSV,3,3,09,71,02,146,*5B
$GPGGA,,,,,,0,,,,,,,,*66
$GPVTG,,T,,M,,N,,K,N*2C
$GPRMC,,V,,,,,,,,,,N*53
$GPGSA,A,1,,,,,,,,,,,,,,,*1E
$GNGSA,A,1,,,,,,,,,,,,,,,*00
$GPGSV,4,1,13,02,18,043,30,05,30,081,24,12,39,122,32,20,33,142,28*7E
$GPGSV,4,2,13,21,35,223,35,25,76,098,32,29,57,340,27,31,30,293,41*7C
$GPGSV,4,3,13,33,,,35,40,,,34,18,00,187,,24,00,170,*7E
$GPGSV,4,4,13,26,02,313,*4C
$GLGSV,3,1,09,74,20,171,23,70,16,099,22,86,43,291,41,75,63,222,33*6A
$GLGSV,3,2,09,69,10,046,19,84,07,050,12,85,44,014,27,87,02,253,*60
$GLGSV,3,3,09,71,02,146,*5B
$GPGGA,,,,,,0,,,,,,,,*66
$GPVTG,,T,,M,,N,,K,N*2C
$GPRMC,,V,,,,,,,,,,N*53
$GPGSA,A,1,,,,,,,,,,,,,,,*1E
$GNGSA,A,1,,,,,,,,,,,,,,,*00
$GPGSV,4,1,13,02,18,043,27,05,30,081,24,12,39,122,32,20,33,142,32*73
$GPGSV,4,2,13,21,35,223,26,25,76,098,31,29,57,340,34,31,30,293,41*7F
$GPGSV,4,3,13,33,,,31,40,,,34,18,00,187,,24,00,170,*7A
$GPGSV,4,4,13,26,02,313,*4C
$GLGSV,3,1,09,74,20,171,24,70,16,099,19,86,43,291,39,75,63,222,35*6C
$GLGSV,3,2,09,69,10,046,17,84,07,050,13,85,44,014,31,87,02,253,*68
$GLGSV,3,3,09,71,02,146,*5B
$GPGGA,,,,,,0,,,,,,,,*66
$GPVTG,,T,,M,,N,,K,N*2C
$GPRMC,,V,,,,,,,,,,N*53
$GPGSA,A,1,,,,,,,,,,,,,,,*1E
$GNGSA,A,1,,,,,,,,,,,,,,,*00
$GPGSV,4,1,13,02,18,043,27,05,30,081,23,12,39,122,33,20,33,142,28*7E
$GPGSV,4,2,13,21,35,223,22,25,76,098,31,29,57,340,36,31,30,293,40*78
$GPGSV,4,3,13,33,,,30,40,,,34,18,00,187,,24,00,170,*7B
$GPGSV,4,4,13,26,02,313,*4C
$GLGSV,3,1,09,74,20,171,28,70,16,099,21,86,43,291,35,75,63,222,37*65
$GLGSV,3,2,09,69,10,046,17,84,07,050,13,85,44,014,27,87,02,253,*6F
$GLGSV,3,3,09,71,02,146,*5B
$GPGGA,,,,,,0,,,,,,,,*66
$GPVTG,,T,,M,,N,,K,N*2C
$GPRMC,,V,,,,,,,,,,N*53
$GPGSA,A,1,,,,,,,,,,,,,,,*1E
$GNGSA,A,1,,,,,,,,,,,,,,,*00
$GPGSV,4,1,13,02,18,043,25,05,30,081,22,12,39,122,32,20,33,142,31*74
$GPGSV,4,2,13,21,35,223,21,25,76,098,29,29,57,340,38,31,30,293,39*72
$GPGSV,4,3,13,33,,,33,40,,,34,18,00,187,,24,00,170,*78
$GPGSV,4,4,13,26,02,313,*4C
$GLGSV,3,1,09,74,20,171,22,70,16,099,25,86,43,291,39,75,63,222,34*64
$GLGSV,3,2,09,69,10,046,18,84,07,050,13,85,44,014,26,87,02,253,*61
$GLGSV,3,3,09,71,02,146,*5B
$GPGGA,,,,,,0,,,,,,,,*66
$GPVTG,,T,,M,,N,,K,N*2C
$GPRMC,,V,,,,,,,,,,N*53
$GPGSA,A,1,,,,,,,,,,,,,,,*1E
$GNGSA,A,1,,,,,,,,,,,,,,,*00
$GPGSV,4,1,13,02,18,043,28,05,30,081,23,12,39,122,33,20,33,142,31*79
$GPGSV,4,2,13,21,35,223,19,25,76,098,27,29,57,340,38,31,30,293,41*78
$GPGSV,4,3,13,33,,,33,40,,,34,18,00,187,,24,00,170,*78
$GPGSV,4,4,13,26,02,313,*4C
$GLGSV,3,1,09,74,20,171,25,70,16,099,29,86,43,291,43,75,63,222,33*65
$GLGSV,3,2,09,69,10,046,19,84,07,050,13,85,44,014,29,87,02,253,*6F
$GLGSV,3,3,09,71,02,146,*5B
$GPGGA,,,,,,0,,,,,,,,*66
$GPVTG,,T,,M,,N,,K,N*2C
$GPRMC,,V,,,,,,,,,,N*53
$GPGSA,A,1,,,,,,,,,,,,,,,*1E
$GNGSA,A,1,,,,,,,,,,,,,,,*00
$GPGSV,4,1,13,02,18,043,26,05,30,081,24,12,39,122,33,20,33,142,30*71
$GPGSV,4,2,13,21,35,223,23,25,76,098,30,29,57,340,39,31,30,293,42*75
$GPGSV,4,3,13,33,,,36,40,,,34,18,00,187,,24,00,170,*7D
$GPGSV,4,4,13,26,02,313,*4C
$GLGSV,3,1,09,74,20,171,21,70,16,099,22,86,43,291,37,75,63,222,35*6F
$GLGSV,3,2,09,69,10,046,19,84,07,050,13,85,44,014,32,87,02,253,*65
$GLGSV,3,3,09,71,02,146,*5B
$GPGGA,,,,,,0,,,,,,,,*66
$GPVTG,,T,,M,,N,,K,N*2C
$GPRMC,,V,,,,,,,,,,N*53
$GPGSA,A,1,,,,,,,,,,,,,,,*1E
$GNGSA,A,1,,,,,,,,,,,,,,,*00
$GPGSV,4,1,13,02,18,043,27,05,30,081,23,12,39,122,33,20,33,142,31*76
$GPGSV,4,2,13,21,35,223,19,25,76,098,29,29,57,340,39,31,30,293,45*73
$GPGSV,4,3,13,33,,,36,40,,,34,18,00,187,,24,00,170,*7D
$GPGSV,4,4,13,26,02,313,*4C
$GLGSV,3,1,09,74,20,171,21,70,16,099,23,86,43,291,38,75,63,222,34*60
$GLGSV,3,2,09,69,10,046,16,84,07,050,13,85,44,014,31,87,02,253,*69
$GLGSV,3,3,09,71,02,146,*5B
$GPGGA,,,,,,0,,,,,,,,*66
$GPVTG,,T,,M,,N,,K,N*2C
$GPRMC,,V,,,,,,,,,,N*53
$GPGSA,A,1,,,,,,,,,,,,,,,*1E
$GNGSA,A,1,,,,,,,,,,,,,,,*00
$GPGSV,4,1,13,02,18,043,27,05,30,081,23,12,39,122,31,20,33,142,29*7D
$GPGSV,4,2,13,21,35,223,23,25,76,098,29,29,57,340,39,31,30,293,44*7B
$GPGSV,4,3,13,33,,,34,40,,,34,18,00,187,,24,00,170,*7F
$GPGSV,4,4,13,26,02,313,*4C
$GLGSV,3,1,09,74,20,171,18,70,16,099,21,86,43,291,37,75,63,222,35*66
$GLGSV,3,2,09,69,10,046,19,84,07,050,13,85,44,014,31,87,02,253,*66
$GLGSV,3,3,09,71,02,146,*5B
$GPGGA,,,,,,0,,,,,,,,*66
$GPVTG,,T,,M,,N,,K,N*2C
$GPRMC,,V,,,,,,,,,,N*53
$GPGSA,A,1,,,,,,,,,,,,,,,*1E
$GNGSA,A,1,,,,,,,,,,,,,,,*00
$GPGSV,4,1,13,02,18,043,28,05,30,081,23,12,39,122,33,20,33,142,28*71
$GPGSV,4,2,13,21,35,223,25,25,76,098,33,29,57,340,39,31,30,293,45*77
$GPGSV,4,3,13,33,,,33,40,,,34,18,00,187,,24,00,170,*78
$GPGSV,4,4,13,26,02,313,*4C
$GLGSV,3,1,09,74,20,171,19,70,16,099,21,86,43,291,41,75,63,222,36*65
$GLGSV,3,2,09,69,10,046,18,84,07,050,13,85,44,014,30,87,02,253,*66
$GLGSV,3,3,09,71,02,146,*5B
$GPGGA,,,,,,0,,,,,,,,*66
$GPVTG,,T,,M,,N,,K,N*2C
$GPRMC,,V,,,,,,,,,,N*53
$GPGSA,A,1,,,,,,,,,,,,,,,*1E
$GNGSA,A,1,,,,,,,,,,,,,,,*00
$GPGSV,4,1,13,02,18,043,24,05,30,081,23,12,39,122,32,20,33,142,25*71
$GPGSV,4,2,13,21,35,223,21,25,76,098,32,29,57,340,39,31,30,293,43*74
$GPGSV,4,3,13,33,,,33,40,,,34,18,00,187,,24,00,170,*78
$GPGSV,4,4,13,26,02,313,*4C
$GLGSV,3,1,09,74,20,171,20,70,16,099,19,86,43,291,41,75,63,222,37*65
$GLGSV,3,2,09,69,10,046,21,84,07,050,13,85,44,014,30,87,02,253,*6C
$GLGSV,3,3,09,71,02,146,*5B
$GPGGA,,,,,,0,,,,,,,,*66
$GPVTG,,T,,M,,N,,K,N*2C
$GPRMC,,V,,,,,,,,,,N*53
$GPGSA,A,1,,,,,,,,,,,,,,,*1E
$GNGSA,A,1,,,,,,,,,,,,,,,*00
$GPGSV,4,1,13,02,18,043,25,05,30,081,21,12,39,122,30,20,33,142,26*73
$GPGSV,4,2,13,21,35,223,20,25,76,098,31,29,57,340,40,31,30,293,44*7F
$GPGSV,4,3,13,33,,,33,40,,,34,18,00,187,,24,00,170,*78
$GPGSV,4,4,13,26,02,313,*4C
$GLGSV,3,1,09,74,20,171,20,70,16,099,21,86,43,291,42,75,63,222,35*6F
$GLGSV,3,2,09,69,10,046,19,84,07,050,13,85,44,014,31,87,02,253,*66
$GLGSV,3,3,09,71,02,146,*5B
$GPGGA,,,,,,0,,,,,,,,*66
$GPVTG,,T,,M,,N,,K,N*2C
$GPRMC,,V,,,,,,,,,,N*53
$GPGSA,A,1,,,,,,,,,,,,,,,*1E
$GNGSA,A,1,,,,,,,,,,,,,,,*00
$GPGSV,4,1,13,02,18,043,25,05,30,081,25,12,39,122,31,20,33,142,25*75
$GPGSV,4,2,13,21,35,223,22,25,76,098,32,29,57,340,39,31,30,293,43*77
$GPGSV,4,3,13,33,,,33,40,,,34,18,00,187,,24,00,170,*78
$GPGSV,4,4,13,26,02,313,*4C
$GLGSV,3,1,09,74,20,171,19,70,16,099,23,86,43,291,40,75,63,222,33*63
$GLGSV,3,2,09,69,10,046,17,84,07,050,13,85,44,014,31,87,02,253,*68
$GLGSV,3,3,09,71,02,146,*5B
$GPGGA,,,,,,0,,,,,,,,*66
$GPVTG,,T,,M,,N,,K,N*2C
$GPRMC,,V,,,,,,,,,,N*53
$GPGSA,A,1,,,,,,,,,,,,,,,*1E
$GNGSA,A,1,,,,,,,,,,,,,,,*00
$GPGSV,4,1,13,02,18,043,24,05,30,081,22,12,39,122,29,20,33,142,23*7C
$GPGSV,4,2,13,21,35,223,24,25,76,098,30,29,57,340,40,31,30,293,43*7D
$GPGSV,4,3,13,33,,,33,40,,,34,18,00,187,,24,00,170,*78
$GPGSV,4,4,13,26,02,313,*4C
$GLGSV,3,1,09,74,20,171,20,70,16,099,21,86,43,291,39,75,63,222,35*63
$GLGSV,3,2,09,69,10,046,19,84,07,050,10,85,44,014,33,87,02,253,*67
$GLGSV,3,3,09,71,02,146,*5B
$GPGGA,,,,,,0,,,,,,,,*66
$GPVTG,,T,,M,,N,,K,N*2C
$GPRMC,,V,,,,,,,,,,N*53
$GPGSA,A,1,,,,,,,,,,,,,,,*1E
$GNGSA,A,1,,,,,,,,,,,,,,,*00
$GPGSV,4,1,13,02,18,043,27,05,30,081,22,12,39,122,27,20,33,142,21*73
$GPGSV,4,2,13,21,35,223,19,25,76,098,29,29,57,340,38,31,30,293,41*76
$GPGSV,4,3,13,33,,,33,40,,,34,18,00,187,,24,00,170,*78
$GPGSV,4,4,13,26,02,313,*4C
$GLGSV,3,1,09,74,20,171,17,70,16,099,23,86,43,291,39,75,63,222,35*65
$GLGSV,3,2,09,69,10,046,18,84,07,050,10,85,44,014,34,87,02,253,*61
$GLGSV,3,3,09,71,02,146,*5B
$GPGGA,,,,,,0,,,,,,,,*66
$GPVTG,,T,,M,,N,,K,N*2C
$GPRMC,,V,,,,,,,,,,N*53
$GPGSA,A,1,,,,,,,,,,,,,,,*1E
$GNGSA,A,1,,,,,,,,,,,,,,,*00
$GPGSV,4,1,13,02,18,043,26,05,30,081,25,12,39,122,27,20,33,142,20*74
$GPGSV,4,2,13,21,35,223,19,25,76,098,31,29,57,340,37,31,30,293,42*73
$GPGSV,4,3,13,33,,,33,40,,,34,18,00,187,,24,00,170,*78
$GPGSV,4,4,13,26,02,313,*4C
$GLGSV,3,1,09,74,20,171,19,70,16,099,21,86,43,291,40,75,63,222,34*66
$GLGSV,3,2,09,69,10,046,20,84,07,050,10,85,44,014,34,87,02,253,*6A
$GLGSV,3,3,09,71,02,146,*5B
$GPGGA,,,,,,0,,,,,,,,*66
$GPVTG,,T,,M,,N,,K,N*2C
$GPRMC,,V,,,,,,,,,,N*53
$GPGSA,A,1,,,,,,,,,,,,,,,*1E
$GNGSA,A,1,,,,,,,,,,,,,,,*00
$GPGSV,4,1,13,02,18,043,28,05,30,081,25,12,39,122,29,20,33,142,20*74
$GPGSV,4,2,13,21,35,223,16,25,76,098,29,29,57,340,37,31,30,293,43*74
$GPGSV,4,3,13,33,,,33,40,,,34,18,00,187,,24,00,170,*78
$GPGSV,4,4,13,26,02,313,*4C
$GLGSV,3,1,09,74,20,171,21,70,16,099,24,86,43,291,42,75,63,222,35*6B
$GLGSV,3,2,09,69,10,046,18,84,07,050,10,85,44,014,32,87,02,253,*67
$GLGSV,3,3,09,71,02,146,*5B
$GPGGA,,,,,,0,,,,,,,,*66
$GPVTG,,T,,M,,N,,K,N*2C
$GPRMC,,V,,,,,,,,,,N*53
$GPGSA,A,1,,,,,,,,,,,,,,,*1E
$GNGSA,A,1,,,,,,,,,,,,,,,*00
$GPGSV,4,1,13,02,18,043,26,05,30,081,29,12,39,122,31,20,33,142,24*7B
$GPGSV,4,2,13,21,35,223,22,25,76,098,30,29,57,340,37,31,30,293,39*76
$GPGSV,4,3,13,33,,,33,40,,,29,18,00,187,,24,00,170,*74
$GPGSV,4,4,13,26,02,313,*4C
$GLGSV,3,1,09,74,20,171,21,70,16,099,27,86,43,291,42,75,63,222,35*68
$GLGSV,3,2,09,69,10,046,17,84,07,050,10,85,44,014,31,87,02,253,*6B
$GLGSV,3,3,09,71,02,146,*5B
$GPGGA,,,,,,0,,,,,,,,*66
$GPVTG,,T,,M,,N,,K,N*2C
$GPRMC,,V,,,,,,,,,,N*53
$GPGSA,A,1,,,,,,,,,,,,,,,*1E
$GNGSA,A,1,,,,,,,,,,,,,,,*00
$GPGSV,4,1,13,02,18,043,27,05,30,081,27,12,39,122,31,20,33,142,23*73
$GPGSV,4,2,13,21,36,224,22,25,76,099,32,29,57,340,38,31,30,293,40*70
$GPGSV,4,3,13,33,,,33,40,,,31,18,00,187,,24,00,170,*7D
$GPGSV,4,4,13,26,02,313,*4C
$GLGSV,3,1,09,74,20,171,19,70,16,099,27,86,43,291,41,75,63,222,36*63
$GLGSV,3,2,09,69,10,046,16,84,07,050,14,85,44,014,30,87,02,253,*6F
$GLGSV,3,3,09,71,02,146,*5B
$GPGGA,175604.5,3205.368861,N,03448.155604,E,1,08,1.0,38.3,M,19.0,M,,*6F
$GPVTG,284.1,T,281.2,M,1.4,N,2.5,K,A*27
$GPRMC,175604.5,A,3205.368861,N,03448.155604,E,1.4,284.1,110416,3.0,E,A*05
$GPGSA,A,3,02,05,12,20,21,25,29,31,,,,,2.2,1.0,1.9*30
$GNGSA,A,3,02,05,12,20,21,25,29,31,,,,,2.2,1.0,1.9*2E
$GNGSA,A,3,,,,,,,,,,,,,2.2,1.0,1.9*25
$GPGSV,4,1,13,02,18,043,27,05,30,081,27,12,39,122,31,20,33,142,23*73
$GPGSV,4,2,13,21,36,224,22,25,76,099,32,29,57,340,38,31,30,293,40*70
$GPGSV,4,3,13,33,,,33,40,,,31,18,00,187,,24,00,170,*7D
$GPGSV,4,4,13,26,02,313,*4C
$GLGSV,3,1,09,74,20,171,19,70,16,099,27,86,43,291,41,75,63,222,36*63
$GLGSV,3,2,09,69,10,046,16,84,07,050,14,85,44,014,30,87,02,253,*6F
$GLGSV,3,3,09,71,02,146,*5B
$GPGGA,175605.4,3205.368905,N,03448.156005,E,1,08,1.0,38.8,M,19.0,M,,*63
$GPVTG,284.1,T,281.2,M,1.4,N,2.5,K,A*27
$GPRMC,175605.4,A,3205.368905,N,03448.156005,E,1.4,284.1,110416,3.0,E,A*02
$GPGSA,A,3,02,05,12,20,21,25,29,31,,,,,2.2,1.0,1.9*30
$GNGSA,A,3,02,05,12,20,21,25,29,31,,,,,2.2,1.0,1.9*2E
$GNGSA,A,3,,,,,,,,,,,,,2.2,1.0,1.9*25
$GPGSV,4,1,13,02,18,043,26,05,30,081,24,12,39,122,27,20,33,142,23*76
$GPGSV,4,2,13,21,36,224,26,25,76,099,28,29,57,340,38,31,30,293,40*7F
$GPGSV,4,3,13,33,,,33,40,,,31,18,00,187,,24,00,170,*7D
$GPGSV,4,4,13,26,02,313,*4C
$GLGSV,3,1,09,74,19,171,19,70,16,099,26,86,43,291,40,75,63,220,35*68
$GLGSV,3,2,09,69,10,046,16,84,06,050,14,85,44,014,36,87,02,253,*68
$GLGSV,3,3,09,71,02,144,*59
$GPGGA,175606.0,3205.370414,N,03448.163031,E,1,08,0.7,41.3,M,19.0,M,,*62
$GPVTG,284.1,T,281.2,M,1.4,N,2.6,K,A*24
$GPRMC,175606.0,A,3205.370414,N,03448.163031,E,1.4,284.1,110416,3.0,E,A*00
$GPGSA,A,3,02,05,12,20,21,25,29,31,,,,,1.5,0.7,1.3*38
$GNGSA,A,3,02,05,12,20,21,25,29,31,,,,,1.5,0.7,1.3*26
$GNGSA,A,3,74,70,86,75,69,84,85,,,,,,1.5,0.7,1.3*2B
$GPGSV,4,1,13,02,18,043,26,05,30,081,24,12,39,122,32,20,33,142,25*74
$GPGSV,4,2,13,21,36,224,38,25,76,099,25,29,57,340,38,31,30,293,41*7C
$GPGSV,4,3,13,33,,,33,40,,,30,18,00,187,,24,00,170,*7C
$GPGSV,4,4,13,26,02,313,*4C
$GLGSV,3,1,09,74,19,171,19,70,16,099,27,86,43,291,39,75,63,220,36*64
$GLGSV,3,2,09,69,10,046,19,84,06,050,15,85,44,014,29,87,02,253,*68
$GLGSV,3,3,09,71,02,144,*59
$GPGGA,175608.0,3205.368030,N,03448.163405,E,1,08,0.8,35.3,M,19.0,M,,*68
$GPVTG,96.2,T,93.3,M,1.6,N,2.9,K,A*2B
$GPRMC,175608.0,A,3205.368030,N,03448.163405,E,1.6,96.2,110416,3.0,E,A*36
$GPGSA,A,2,02,05,12,20,21,25,29,31,,,,,1.2,0.8,0.8*3B
$GNGSA,A,2,02,05,12,20,21,25,29,31,,,,,1.2,0.8,0.8*25
$GNGSA,A,2,70,75,85,86,,,,,,,,,1.2,0.8,0.8*28
$GPGSV,4,1,13,02,18,043,27,05,30,081,27,12,39,122,31,20,33,142,26*76
$GPGSV,4,2,13,21,36,224,35,25,76,099,26,29,57,340,36,31,30,293,42*7F
$GPGSV,4,3,13,33,,,33,40,,,31,18,00,187,,24,00,170,*7D
$GPGSV,4,4,13,26,02,313,*4C
$GLGSV,3,1,09,74,19,171,19,70,16,099,25,86,43,291,38,75,63,220,36*67
$GLGSV,3,2,09,69,10,046,17,84,06,050,15,85,44,014,30,87,02,253,*6E
$GLGSV,3,3,09,71,02,144,*59
$GPGGA,175609.0,3205.367748,N,03448.164663,E,1,08,0.8,35.6,M,19.0,M,,*6E
$GPVTG,87.7,T,84.7,M,1.9,N,3.6,K,A*2D
$GPRMC,175609.0,A,3205.367748,N,03448.164663,E,1.9,87.7,110416,3.0,E,A*3F
$GPGSA,A,2,02,05,12,20,21,25,29,31,,,,,1.2,0.8,0.8*3B
$GNGSA,A,2,02,05,12,20,21,25,29,31,,,,,1.2,0.8,0.8*25
$GNGSA,A,2,70,75,85,86,,,,,,,,,1.2,0.8,0.8*28
$GPGSV,4,1,13,02,18,043,26,05,30,081,28,12,39,122,31,20,33,142,26*78
$GPGSV,4,2,13,21,36,224,35,25,76,099,20,29,57,340,35,31,30,293,41*79
$GPGSV,4,3,13,33,,,33,40,,,29,18,00,187,,24,00,170,*74
$GPGSV,4,4,13,26,02,313,*4C
$GLGSV,3,1,09,74,19,171,21,70,16,099,26,86,43,291,40,75,63,220,36*60
$GLGSV,3,2,09,69,10,046,17,84,06,050,15,85,44,014,30,87,02,253,*6E
$GLGSV,3,3,09,71,02,144,*59
$GPGGA,175610.0,3205.367986,N,03448.166368,E,1,08,0.8,33.6,M,19.0,M,,*60
$GPVTG,89.1,T,86.1,M,1.9,N,3.5,K,A*22
$GPRMC,175610.0,A,3205.367986,N,03448.166368,E,1.9,89.1,110416,3.0,E,A*3F
$GPGSA,A,2,02,05,12,20,21,25,29,31,,,,,1.1,0.8,0.8*38
$GNGSA,A,2,02,05,12,20,21,25,29,31,,,,,1.1,0.8,0.8*26
$GNGSA,A,2,70,74,75,85,86,,,,,,,,1.1,0.8,0.8*28
$GPGSV,4,1,13,02,18,043,26,05,30,081,27,12,39,122,31,20,33,142,25*74
$GPGSV,4,2,13,21,36,224,34,25,76,099,20,29,57,340,30,31,30,293,40*7C
$GPGSV,4,3,13,33,,,33,40,,,29,18,00,187,,24,00,170,*74
$GPGSV,4,4,13,26,02,313,*4C
$GLGSV,3,1,09,74,19,171,22,70,16,099,22,86,43,291,41,75,63,220,35*65
$GLGSV,3,2,09,69,10,046,18,84,06,050,16,85,44,014,26,87,02,253,*65
$GLGSV,3,3,09,71,02,144,*59
$GPGGA,175611.0,3205.367871,N,03448.167969,E,1,08,0.8,34.6,M,19.0,M,,*65
$GPVTG,95.9,T,92.9,M,2.1,N,3.8,K,A*2C
$GPRMC,175611.0,A,3205.367871,N,03448.167969,E,2.1,95.9,110416,3.0,E,A*33
$GPGSA,A,2,02,05,12,20,21,25,29,31,,,,,1.1,0.8,0.8*38
$GNGSA,A,2,02,05,12,20,21,25,29,31,,,,,1.1,0.8,0.8*26
$GNGSA,A,2,70,74,75,85,86,,,,,,,,1.1,0.8,0.8*28
$GPGSV,4,1,13,02,18,043,21,05,30,081,27,12,39,122,30,20,33,142,23*74
$GPGSV,4,2,13,21,36,224,33,25,76,099,30,29,57,340,27,31,30,293,43*7F
$GPGSV,4,3,13,33,,,33,40,,,29,18,00,187,,24,00,170,*74
$GPGSV,4,4,13,26,02,313,*4C
$GLGSV,3,1,09,74,19,171,18,70,16,099,21,86,43,291,41,75,63,220,34*6E
$GLGSV,3,2,09,69,10,046,20,84,06,050,16,85,44,014,27,87,02,253,*6F
$GLGSV,3,3,09,71,02,144,*59
$GPGGA,175612.0,3205.367991,N,03448.169209,E,1,08,0.7,34.0,M,19.0,M,,*63
$GPVTG,96.4,T,93.4,M,2.2,N,4.1,K,A*23
$GPRMC,175612.0,A,3205.367991,N,03448.169209,E,2.2,96.4,110416,3.0,E,A*31
$GPGSA,A,2,02,05,12,20,21,25,29,31,,,,,1.1,0.7,0.8*37
$GNGSA,A,2,02,05,12,20,21,25,29,31,,,,,1.1,0.7,0.8*29
$GNGSA,A,2,69,70,74,75,85,86,,,,,,,1.1,0.7,0.8*28
$GPGSV,4,1,13,02,18,043,22,05,30,081,30,12,39,122,33,20,33,142,26*77
$GPGSV,4,2,13,21,36,224,36,25,76,099,30,29,57,340,23,31,30,293,39*73
$GPGSV,4,3,13,33,,,33,40,,,32,18,00,187,,24,00,170,*7E
$GPGSV,4,4,13,26,02,313,*4C
$GLGSV,3,1,09,74,19,171,19,70,16,099,24,86,43,291,39,75,63,220,32*63
$GLGSV,3,2,09,69,10,046,18,84,06,050,16,85,44,014,30,87,02,253,*62
$GLGSV,3,3,09,71,02,144,*59
$GPGGA,175613.0,3205.369038,N,03448.170428,E,1,08,0.7,35.8,M,19.0,M,,*62
$GPVTG,90.8,T,87.8,M,1.8,N,3.4,K,A*2B
$GPRMC,175613.0,A,3205.369038,N,03448.170428,E,1.8,90.8,110416,3.0,E,A*3A
$GPGSA,A,2,02,05,12,20,21,25,29,31,,,,,1.1,0.7,0.8*37
$GNGSA,A,2,02,05,12,20,21,25,29,31,,,,,1.1,0.7,0.8*29
$GNGSA,A,2,69,70,74,75,85,86,,,,,,,1.1,0.7,0.8*28
$GPGSV,4,1,13,02,18,043,25,05,30,081,29,12,39,122,30,20,33,142,24*79
$GPGSV,4,2,13,21,36,224,33,25,76,099,30,29,57,340,25,31,30,293,38*71
$GPGSV,4,3,13,33,,,33,40,,,30,18,00,187,,24,00,170,*7C
$GPGSV,4,4,13,26,02,313,*4C
$GLGSV,3,1,09,74,19,171,20,70,16,099,24,86,43,291,37,75,63,220,33*66
$GLGSV,3,2,09,69,10,046,17,84,06,050,16,85,44,014,25,87,02,253,*69
$GLGSV,3,3,09,71,02,144,*59
$GPGGA,175614.0,3205.369206,N,03448.171128,E,1,08,0.7,35.0,M,19.0,M,,*66
$GPVTG,92.7,T,89.7,M,2.0,N,3.6,K,A*2E
$GPRMC,175614.0,A,3205.369206,N,03448.171128,E,2.0,92.7,110416,3.0,E,A*30
$GPGSA,A,2,02,05,12,20,21,25,29,31,,,,,1.1,0.7,0.8*37
$GNGSA,A,2,02,05,12,20,21,25,29,31,,,,,1.1,0.7,0.8*29
$GNGSA,A,2,69,70,74,75,85,86,,,,,,,1.1,0.7,0.8*28
$GPGSV,4,1,13,02,18,043,28,05,30,081,30,12,39,122,31,20,33,142,28*71
$GPGSV,4,2,13,21,36,224,40,25,76,099,33,29,57,340,33,31,30,293,40*7E
$GPGSV,4,3,13,33,,,33,40,,,31,18,00,187,,24,00,170,*7D
$GPGSV,4,4,13,26,02,313,*4C
$GLGSV,3,1,09,74,19,171,19,70,16,099,25,86,43,291,34,75,63,220,34*69
$GLGSV,3,2,09,69,10,046,19,84,06,050,16,85,44,014,22,87,02,253,*60
$GLGSV,3,3,09,71,02,144,*59
$GPGGA,175615.0,3205.368914,N,03448.171795,E,1,08,0.7,33.8,M,19.0,M,,*60
$GPVTG,104.4,T,101.4,M,2.0,N,3.8,K,A*2F
$GPRMC,175615.0,A,3205.368914,N,03448.171795,E,2.0,104.4,110416,3.0,E,A*05
$GPGSA,A,2,02,05,12,20,21,25,29,31,,,,,1.1,0.7,0.8*37
$GNGSA,A,2,02,05,12,20,21,25,29,31,,,,,1.1,0.7,0.8*29
$GNGSA,A,2,69,70,74,75,85,86,,,,,,,1.1,0.7,0.8*28
$GPGSV,4,1,13,02,18,043,26,05,30,081,25,12,39,122,30,20,33,142,34*77
$GPGSV,4,2,13,21,36,224,35,25,76,099,32,29,57,340,28,31,30,293,36*76
$GPGSV,4,3,13,33,,,33,40,,,31,18,00,187,,24,00,170,*7D
$GPGSV,4,4,13,26,02,313,*4C
$GLGSV,3,1,09,74,19,171,19,70,16,099,26,86,43,291,28,75,63,220,35*66
$GLGSV,3,2,09,69,10,046,18,84,06,050,16,85,44,014,26,87,02,253,*65
$GLGSV,3,3,09,71,02,144,*59
$GPGGA,175616.0,3205.369049,N,03448.172372,E,1,08,0.7,35.2,M,19.0,M,,*61
$GPVTG,80.8,T,77.9,M,2.5,N,4.6,K,A*2F
$GPRMC,175616.0,A,3205.369049,N,03448.172372,E,2.5,80.8,110416,3.0,E,A*3C
$GPGSA,A,2,02,05,12,20,21,25,29,31,,,,,1.1,0.7,0.8*37
$GNGSA,A,2,02,05,12,20,21,25,29,31,,,,,1.1,0.7,0.8*29
$GNGSA,A,2,69,70,74,75,85,86,,,,,,,1.1,0.7,0.8*28
$GPGSV,4,1,13,02,18,043,24,05,30,081,27,12,39,122,31,20,33,142,32*70
$GPGSV,4,2,13,21,36,224,37,25,76,099,30,29,57,340,27,31,30,293,36*79
$GPGSV,4,3,13,33,,,33,40,,,29,18,00,187,,24,00,170,*74
$GPGSV,4,4,13,26,02,313,*4C
$GLGSV,3,1,09,74,19,171,18,70,16,099,27,86,43,291,34,75,63,220,33*6D
$GLGSV,3,2,09,69,10,046,17,84,06,050,16,85,44,014,28,87,02,253,*64
$GLGSV,3,3,09,71,02,144,*59
$GPGGA,175617.0,3205.368999,N,03448.173006,E,1,08,0.7,36.0,M,19.0,M,,*65
$GPVTG,103.9,T,101.0,M,1.6,N,3.0,K,A*2C
$GPRMC,175617.0,A,3205.368999,N,03448.173006,E,1.6,103.9,110416,3.0,E,A*02
$GPGSA,A,2,02,05,12,20,21,25,29,31,,,,,1.1,0.7,0.8*37
$GNGSA,A,2,02,05,12,20,21,25,29,31,,,,,1.1,0.7,0.8*29
$GNGSA,A,2,69,70,74,75,85,86,,,,,,,1.1,0.7,0.8*28
$GPGSV,4,1,13,02,18,043,27,05,30,081,30,12,39,122,33,20,33,142,34*71
$GPGSV,4,2,13,21,36,224,37,25,76,099,31,29,57,340,32,31,30,293,35*7F
$GPGSV,4,3,13,33,,,33,40,,,29,18,00,187,,24,00,170,*74
$GPGSV,4,4,13,26,02,313,*4C
$GLGSV,3,1,09,74,19,171,20,70,16,099,33,86,43,291,27,75,63,220,36*64
$GLGSV,3,2,09,69,10,046,20,84,06,050,16,85,44,014,28,87,02,253,*60
$GLGSV,3,3,09,71,02,144,*59
$GPGGA,175618.0,3205.369207,N,03448.174292,E,1,08,0.7,31.6,M,19.0,M,,*6E
$GPVTG,103.9,T,101.0,M,1.2,N,2.1,K,A*28
$GPRMC,175618.0,A,3205.369207,N,03448.174292,E,1.2,103.9,110416,3.0,E,A*0C
$GPGSA,A,2,02,05,12,20,21,25,29,31,,,,,1.1,0.7,0.8*37
$GNGSA,A,2,02,05,12,20,21,25,29,31,,,,,1.1,0.7,0.8*29
$GNGSA,A,2,69,70,74,75,85,86,,,,,,,1.1,0.7,0.8*28
$GPGSV,4,1,13,02,18,043,27,05,30,081,29,12,39,122,34,20,33,142,34*7E
$GPGSV,4,2,13,21,36,224,35,25,76,099,33,29,57,340,32,31,30,293,35*7F
$GPGSV,4,3,13,33,,,33,40,,,29,18,00,187,,24,00,170,*74
$GPGSV,4,4,13,26,02,313,*4C
$GLGSV,3,1,09,74,19,171,22,70,16,099,27,86,43,291,29,75,63,220,37*6C
$GLGSV,3,2,09,69,10,046,19,84,06,050,14,85,44,014,29,87,02,253,*69
$GLGSV,3,3,09,71,02,144,*59
$GPGGA,175619.0,3205.369169,N,03448.174412,E,1,08,0.8,32.6,M,19.0,M,,*66
$GPVTG,103.9,T,101.0,M,0.8,N,1.5,K,A*24
$GPRMC,175619.0,A,3205.369169,N,03448.174412,E,0.8,103.9,110416,3.0,E,A*03
$GPGSA,A,2,02,05,12,20,21,25,29,31,,,,,1.1,0.8,0.8*38
$GNGSA,A,2,02,05,12,20,21,25,29,31,,,,,1.1,0.8,0.8*26
$GNGSA,A,2,70,74,75,85,86,,,,,,,,1.1,0.8,0.8*28
$GPGSV,4,1,13,02,18,043,26,05,30,081,27,12,39,122,31,20,33,142,33*73
$GPGSV,4,2,13,21,36,224,30,25,76,099,31,29,57,340,37,31,30,293,30*78
$GPGSV,4,3,13,33,,,33,40,,,29,18,00,187,,24,00,170,*74
$GPGSV,4,4,13,26,02,313,*4C
$GLGSV,3,1,09,74,19,171,21,70,16,099,24,86,43,291,29,75,63,220,36*6D
$GLGSV,3,2,09,69,10,046,18,84,06,050,14,85,44,014,23,87,02,253,*62
$GLGSV,3,3,09,71,02,144,*59
$GPGGA,175620.0,3205.368851,N,03448.174664,E,1,08,0.8,32.5,M,19.0,M,,*6F
$GPVTG,103.9,T,101.0,M,1.2,N,2.2,K,A*2B
$GPRMC,175620.0,A,3205.368851,N,03448.174664,E,1.2,103.9,110416,3.0,E,A*02
$GPGSA,A,2,02,05,12,20,21,25,29,31,,,,,1.1,0.8,0.8*38
$GNGSA,A,2,02,05,12,20,21,25,29,31,,,,,1.1,0.8,0.8*26
$GNGSA,A,2,70,74,75,85,86,,,,,,,,1.1,0.8,0.8*28
$GPGSV,4,1,13,02,18,043,27,05,30,081,26,12,39,122,31,20,33,142,30*70
$GPGSV,4,2,13,21,36,224,31,25,76,099,27,29,57,340,37,31,30,293,29*76
$GPGSV,4,3,13,33,,,33,40,,,30,18,00,187,,24,00,170,*7C
$GPGSV,4,4,13,26,02,313,*4C
$GLGSV,3,1,09,74,19,171,20,70,16,099,26,86,43,291,29,75,63,220,37*6F
$GLGSV,3,2,09,69,10,046,18,84,06,050,14,85,44,014,27,87,02,253,*66
$GLGSV,3,3,09,71,02,144,*59
$GPGGA,175621.0,3205.368372,N,03448.174849,E,1,08,0.8,33.5,M,19.0,M,,*64
$GPVTG,103.9,T,101.0,M,1.4,N,2.6,K,A*29
$GPRMC,175621.0,A,3205.368372,N,03448.174849,E,1.4,103.9,110416,3.0,E,A*0E
$GPGSA,A,2,02,05,12,20,21,25,29,31,,,,,1.1,0.8,0.8*38
$GNGSA,A,2,02,05,12,20,21,25,29,31,,,,,1.1,0.8,0.8*26
$GNGSA,A,2,70,74,75,85,86,,,,,,,,1.1,0.8,0.8*28
$GPGSV,4,1,13,02,18,043,26,05,30,081,26,12,39,122,30,20,33,142,32*72
$GPGSV,4,2,13,21,36,224,32,25,76,099,31,29,57,340,39,31,30,293,23*76
$GPGSV,4,3,13,33,,,33,40,,,29,18,00,187,,24,00,170,*74
$GPGSV,4,4,13,26,02,313,*4C
$GLGSV,3,1,09,74,19,171,23,70,16,099,26,86,43,291,30,75,63,220,35*66
$GLGSV,3,2,09,69,10,046,19,84,06,050,14,85,44,014,25,87,02,253,*65
$GLGSV,3,3,09,71,02,144,*59
$GPGGA,175622.0,3205.368026,N,03448.175043,E,1,08,0.8,34.0,M,19.0,M,,*64
$GPVTG,103.9,T,101.0,M,1.4,N,2.6,K,A*29
$GPRMC,175622.0,A,3205.368026,N,03448.175043,E,1.4,103.9,110416,3.0,E,A*0C
$GPGSA,A,2,02,05,12,20,21,25,29,31,,,,,1.1,0.8,0.8*38
$GNGSA,A,2,02,05,12,20,21,25,29,31,,,,,1.1,0.8,0.8*26
$GNGSA,A,2,70,74,75,85,86,,,,,,,,1.1,0.8,0.8*28
$GPGSV,4,1,13,02,18,043,26,05,30,081,28,12,39,122,32,20,33,142,30*7C
$GPGSV,4,2,13,21,36,224,32,25,76,099,30,29,57,340,38,31,30,293,33*77
$GPGSV,4,3,13,33,,,33,40,,,29,18,00,187,,24,00,170,*74
$GPGSV,4,4,13,26,02,313,*4C
$GLGSV,3,1,09,74,19,171,32,70,16,099,24,86,43,291,34,75,63,220,37*62
$GLGSV,3,2,09,69,10,046,20,84,06,050,15,85,44,014,23,87,02,253,*68
$GLGSV,3,3,09,71,02,144,*59
$GPGGA,175623.0,3205.367573,N,03448.175138,E,1,08,0.7,36.0,M,19.0,M,,*6F
$GPVTG,103.9,T,101.0,M,1.1,N,2.0,K,A*2A
$GPRMC,175623.0,A,3205.367573,N,03448.175138,E,1.1,103.9,110416,3.0,E,A*0F
$GPGSA,A,2,02,05,12,20,21,25,29,31,,,,,1.1,0.7,0.8*37
$GNGSA,A,2,02,05,12,20,21,25,29,31,,,,,1.1,0.7,0.8*29
$GNGSA,A,2,69,70,74,75,85,86,,,,,,,1.1,0.7,0.8*28
$GPGSV,4,1,13,02,18,043,25,05,30,081,31,12,39,122,28,20,33,142,30*7C
$GPGSV,4,2,13,21,36,224,35,25,76,099,26,29,57,340,38,31,30,293,32*76
$GPGSV,4,3,13,33,,,33,40,,,29,18,00,187,,24,00,170,*74
$GPGSV,4,4,13,26,02,313,*4C
$GLGSV,3,1,09,74,19,171,31,70,16,099,24,86,43,291,32,75,63,220,35*65
$GLGSV,3,2,09,69,10,046,17,84,06,050,15,85,44,014,25,87,02,253,*6A
$GLGSV,3,3,09,71,02,144,*59
$GPGGA,175624.0,3205.367558,N,03448.176077,E,1,08,0.7,37.5,M,19.0,M,,*6C
$GPVTG,103.9,T,101.0,M,1.4,N,2.6,K,A*29
$GPRMC,175624.0,A,3205.367558,N,03448.176077,E,1.4,103.9,110416,3.0,E,A*0D
$GPGSA,A,2,02,05,12,20,21,25,29,31,,,,,1.1,0.7,0.8*37
$GNGSA,A,2,02,05,12,20,21,25,29,31,,,,,1.1,0.7,0.8*29
$GNGSA,A,2,69,70,74,75,85,86,,,,,,,1.1,0.7,0.8*28
$GPGSV,4,1,13,02,18,043,27,05,30,081,26,12,39,122,30,20,33,142,29*79
$GPGSV,4,2,13,21,36,224,32,25,76,099,27,29,57,340,39,31,30,293,29*7B
$GPGSV,4,3,13,33,,,33,40,,,29,18,00,187,,24,00,170,*74
$GPGSV,4,4,13,26,02,313,*4C
$GLGSV,3,1,09,74,19,171,33,70,16,099,24,86,43,291,37,75,63,220,35*62
$GLGSV,3,2,09,69,10,046,22,84,06,050,15,85,44,014,26,87,02,253,*6F
$GLGSV,3,3,09,71,02,144,*59
$GPGGA,175625.0,3205.367486,N,03448.176088,E,1,08,0.7,39.4,M,19.0,M,,*60
$GPVTG,103.9,T,101.0,M,0.4,N,0.8,K,A*24
$GPRMC,175625.0,A,3205.367486,N,03448.176088,E,0.4,103.9,110416,3.0,E,A*0F
$GPGSA,A,2,02,05,12,20,21,25,29,31,,,,,1.1,0.7,0.8*37
$GNGSA,A,2,02,05,12,20,21,25,29,31,,,,,1.1,0.7,0.8*29
$GNGSA,A,2,69,70,74,75,85,86,,,,,,,1.1,0.7,0.8*28
$GPGSV,4,1,13,02,18,043,27,05,30,081,27,12,39,122,29,20,33,142,28*71
$GPGSV,4,2,13,21,36,224,30,25,76,099,28,29,57,340,39,31,30,293,31*7F
$GPGSV,4,3,13,33,,,33,40,,,29,18,00,187,,24,00,170,*74
$GPGSV,4,4,13,26,02,313,*4C
$GLGSV,3,1,09,74,19,171,23,70,16,099,21,86,43,291,32,75,63,220,35*63
$GLGSV,3,2,09,69,10,046,20,84,06,050,15,85,44,014,24,87,02,253,*6F
$GLGSV,3,3,09,71,02,144,*59
$GPGGA,175626.0,3205.367103,N,03448.176601,E,1,08,0.7,41.1,M,19.0,M,,*66
$GPVTG,123.9,T,121.0,M,1.6,N,3.0,K,A*2C
$GPRMC,175626.0,A,3205.367103,N,03448.176601,E,1.6,123.9,110416,3.0,E,A*02
$GPGSA,A,2,02,05,12,20,21,25,29,31,,,,,1.1,0.7,0.8*37
$GNGSA,A,2,02,05,12,20,21,25,29,31,,,,,1.1,0.7,0.8*29
$GNGSA,A,2,69,70,74,75,85,86,,,,,,,1.1,0.7,0.8*28
$GPGSV,4,1,13,02,18,043,26,05,30,081,29,12,39,122,26,20,33,142,27*7E
$GPGSV,4,2,13,21,36,224,32,25,76,099,31,29,57,340,39,31,30,293,28*7D
$GPGSV,4,3,13,33,,,33,40,,,29,18,00,187,,24,00,170,*74
$GPGSV,4,4,13,26,02,313,*4C
$GLGSV,3,1,09,74,19,171,27,70,16,099,27,86,43,291,29,75,63,220,31*6F
$GLGSV,3,2,09,69,10,046,21,84,06,050,13,85,44,014,28,87,02,253,*64
$GLGSV,3,3,09,71,02,144,*59
$GPGGA,175627.0,3205.366909,N,03448.177856,E,1,08,0.7,40.5,M,19.0,M,,*6C
$GPVTG,114.1,T,111.1,M,2.4,N,4.4,K,A*20
$GPRMC,175627.0,A,3205.366909,N,03448.177856,E,2.4,114.1,110416,3.0,E,A*00
$GPGSA,A,2,02,05,12,20,21,25,29,31,,,,,1.1,0.7,0.8*37
$GNGSA,A,2,02,05,12,20,21,25,29,31,,,,,1.1,0.7,0.8*29
$GNGSA,A,2,69,70,74,75,85,86,,,,,,,1.1,0.7,0.8*28
$GPGSV,4,1,13,02,18,043,23,05,30,081,33,12,39,122,25,20,33,142,25*71
$GPGSV,4,2,13,21,36,224,32,25,76,099,30,29,57,340,40,31,30,293,32*79
$GPGSV,4,3,13,33,,,33,40,,,29,18,00,187,,24,00,170,*74
$GPGSV,4,4,13,26,02,313,*4C
$GLGSV,3,1,09,74,19,171,25,70,16,099,29,86,43,291,33,75,63,220,30*69
$GLGSV,3,2,09,69,10,046,20,84,06,050,13,85,44,014,32,87,02,253,*6E
$GLGSV,3,3,09,71,02,144,*59
$GPGGA,175628.0,3205.367047,N,03448.179442,E,1,08,0.7,39.5,M,19.0,M,,*68
$GPVTG,100.7,T,97.7,M,2.4,N,4.4,K,A*1A
$GPRMC,175628.0,A,3205.367047,N,03448.179442,E,2.4,100.7,110416,3.0,E,A*09
$GPGSA,A,2,02,05,12,20,21,25,29,31,,,,,1.1,0.7,0.8*37
$GNGSA,A,2,02,05,12,20,21,25,29,31,,,,,1.1,0.7,0.8*29
$GNGSA,A,2,69,70,74,75,85,86,,,,,,,1.1,0.7,0.8*28
$GPGSV,4,1,13,02,18,043,23,05,30,081,28,12,39,122,23,20,33,142,22*7A
$GPGSV,4,2,13,21,36,224,30,25,76,099,28,29,57,340,38,31,30,293,36*79
$GPGSV,4,3,13,33,,,33,40,,,29,18,00,187,,24,00,170,*74
$GPGSV,4,4,13,26,02,313,*4C
$GLGSV,3,1,09,74,19,171,28,70,16,099,23,86,43,291,29,75,63,220,33*66
$GLGSV,3,2,09,69,10,046,17,84,06,050,13,85,44,014,35,87,02,253,*6D
$GLGSV,3,3,09,71,02,144,*59
$GPGGA,175629.0,3205.367166,N,03448.180312,E,1,08,0.7,39.6,M,19.0,M,,*6C
$GPVTG,96.0,T,93.0,M,2.5,N,4.6,K,A*23
$GPRMC,175629.0,A,3205.367166,N,03448.180312,E,2.5,96.0,110416,3.0,E,A*36
$GPGSA,A,2,02,05,12,20,21,25,29,31,,,,,1.1,0.7,0.8*37
$GNGSA,A,2,02,05,12,20,21,25,29,31,,,,,1.1,0.7,0.8*29
$GNGSA,A,2,69,70,74,75,85,86,,,,,,,1.1,0.7,0.8*28
$GPGSV,4,1,13,02,18,043,27,05,30,081,31,12,39,122,25,20,33,142,24*76
$GPGSV,4,2,13,21,36,224,26,25,76,099,29,29,57,340,40,31,30,293,36*70
$GPGSV,4,3,13,33,,,33,40,,,29,18,00,187,,24,00,170,*74
$GPGSV,4,4,13,26,02,313,*4C
$GLGSV,3,1,09,74,19,171,32,70,16,099,26,86,43,291,35,75,63,220,34*62
$GLGSV,3,2,09,69,10,046,20,84,06,050,16,85,44,014,36,87,02,253,*6F
$GLGSV,3,3,09,71,02,144,*59
$GPGGA,175630.0,3205.367227,N,03448.180909,E,1,08,0.7,39.8,M,19.0,M,,*6C
$GPVTG,113.1,T,110.1,M,2.2,N,4.2,K,A*26
$GPRMC,175630.0,A,3205.367227,N,03448.180909,E,2.2,113.1,110416,3.0,E,A*02
$GPGSA,A,2,02,05,12,20,21,25,29,31,,,,,1.1,0.7,0.8*37
$GNGSA,A,2,02,05,12,20,21,25,29,31,,,,,1.1,0.7,0.8*29
$GNGSA,A,2,69,70,74,75,85,86,,,,,,,1.1,0.7,0.8*28
$GPGSV,4,1,13,02,18,043,28,05,30,081,30,12,39,122,21,20,33,142,22*7A
$GPGSV,4,2,13,21,36,224,28,25,76,099,27,29,57,340,39,31,30,293,38*70
$GPGSV,4,3,13,33,,,33,40,,,29,18,00,187,,24,00,170,*74
$GPGSV,4,4,13,26,02,313,*4C
$GLGSV,3,1,09,74,19,171,30,70,16,099,26,86,43,291,36,75,63,220,34*63
$GLGSV,3,2,09,69,10,046,19,84,06,050,16,85,44,014,36,87,02,253,*65
$GLGSV,3,3,09,71,02,144,*59
$GPGGA,175631.0,3205.366495,N,03448.181991,E,1,08,0.7,39.9,M,19.0,M,,*62
$GPVTG,131.3,T,128.3,M,2.6,N,4.8,K,A*23
$GPRMC,175631.0,A,3205.366495,N,03448.181991,E,2.6,131.3,110416,3.0,E,A*0B
$GPGSA,A,2,02,05,12,20,21,25,29,31,,,,,1.1,0.7,0.8*37
$GNGSA,A,2,02,05,12,20,21,25,29,31,,,,,1.1,0.7,0.8*29
$GNGSA,A,2,69,70,74,75,85,86,,,,,,,1.1,0.7,0.8*28
$GPGSV,4,1,13,02,18,043,28,05,30,081,29,12,39,122,24,20,33,142,23*76
$GPGSV,4,2,13,21,36,224,27,25,76,099,30,29,57,340,41,31,30,293,39*77
$GPGSV,4,3,13,33,,,33,40,,,29,18,00,187,,24,00,170,*74
$GPGSV,4,4,13,26,02,313,*4C
$GLGSV,3,1,09,74,19,171,29,70,16,099,24,86,43,291,39,75,63,220,34*66
$GLGSV,3,2,09,69,10,046,21,84,06,050,16,85,44,014,37,87,02,253,*6F
$GLGSV,3,3,09,71,02,144,*59
$GPGGA,175632.0,3205.366270,N,03448.182594,E,1,08,0.7,39.7,M,19.0,M,,*68
$GPVTG,124.1,T,121.2,M,1.9,N,3.6,K,A*28
$GPRMC,175632.0,A,3205.366270,N,03448.182594,E,1.9,124.1,110416,3.0,E,A*05
$GPGSA,A,2,02,05,12,20,21,25,29,31,,,,,1.1,0.7,0.8*37
$GNGSA,A,2,02,05,12,20,21,25,29,31,,,,,1.1,0.7,0.8*29
$GNGSA,A,2,69,70,74,75,85,86,,,,,,,1.1,0.7,0.8*28
$GPGSV,4,1,13,02,18,043,27,05,30,081,29,12,39,122,25,20,33,142,23*78
$GPGSV,4,2,13,21,36,224,25,25,76,099,29,29,57,340,40,31,30,293,37*72
$GPGSV,4,3,13,33,,,33,40,,,29,18,00,187,,24,00,170,*74
$GPGSV,4,4,13,26,02,313,*4C
$GLGSV,3,1,09,74,19,171,26,70,16,099,22,86,43,291,42,75,63,220,35*62
$GLGSV,3,2,09,69,10,046,19,84,06,050,16,85,44,014,35,87,02,253,*66
$GLGSV,3,3,09,71,02,144,*59
$GPGGA,175633.0,3205.366226,N,03448.183531,E,1,08,0.7,39.5,M,19.0,M,,*66
$GPVTG,122.4,T,119.5,M,1.9,N,3.5,K,A*24
$GPRMC,175633.0,A,3205.366226,N,03448.183531,E,1.9,122.4,110416,3.0,E,A*0A
$GPGSA,A,2,02,05,12,20,21,25,29,31,,,,,1.1,0.7,0.8*37
$GNGSA,A,2,02,05,12,20,21,25,29,31,,,,,1.1,0.7,0.8*29
$GNGSA,A,2,69,70,74,75,85,86,,,,,,,1.1,0.7,0.8*28
$GPGSV,4,1,13,02,18,043,26,05,30,081,27,12,39,122,22,20,33,142,24*77
$GPGSV,4,2,13,21,36,224,25,25,76,099,29,29,57,340,38,31,30,293,38*72
$GPGSV,4,3,13,33,,,33,40,,,29,18,00,187,,24,00,170,*74
$GPGSV,4,4,13,26,02,313,*4C
$GLGSV,3,1,09,74,19,171,23,70,16,099,21,86,43,291,43,75,63,220,35*65
$GLGSV,3,2,09,69,10,046,17,84,06,050,16,85,44,014,35,87,02,253,*68
$GLGSV,3,3,09,71,02,144,*59
$GPGGA,175634.0,3205.365985,N,03448.184487,E,1,08,0.7,39.5,M,19.0,M,,*6B
$GPVTG,119.2,T,116.2,M,2.2,N,4.1,K,A*29
$GPRMC,175634.0,A,3205.365985,N,03448.184487,E,2.2,119.2,110416,3.0,E,A*01
$GPGSA,A,2,02,05,12,20,21,25,29,31,,,,,1.1,0.7,0.8*37
$GNGSA,A,2,02,05,12,20,21,25,29,31,,,,,1.1,0.7,0.8*29
$GNGSA,A,2,69,70,74,75,85,86,,,,,,,1.1,0.7,0.8*28
$GPGSV,4,1,13,02,18,043,30,05,30,081,26,12,39,122,20,20,33,142,24*73
$GPGSV,4,2,13,21,36,224,28,25,76,099,29,29,57,340,38,31,30,293,37*70
$GPGSV,4,3,13,33,,,33,40,,,29,18,00,187,,24,00,170,*74
$GPGSV,4,4,13,26,02,313,*4C
$GLGSV,3,1,09,74,19,171,24,70,16,099,17,86,43,291,42,75,63,220,35*66
$GLGSV,3,2,09,69,10,046,17,84,06,050,16,85,44,014,35,87,02,253,*68
$GLGSV,3,3,09,71,02,144,*59
$GPGGA,175635.0,3205.365563,N,03448.185244,E,1,08,0.7,39.7,M,19.0,M,,*64
$GPVTG,131.6,T,128.6,M,2.1,N,3.9,K,A*22
$GPRMC,175635.0,A,3205.365563,N,03448.185244,E,2.1,131.6,110416,3.0,E,A*01
$GPGSA,A,2,02,05,12,20,21,25,29,31,,,,,1.1,0.7,0.8*37
$GNGSA,A,2,02,05,12,20,21,25,29,31,,,,,1.1,0.7,0.8*29
$GNGSA,A,2,69,70,74,75,85,86,,,,,,,1.1,0.7,0.8*28
$GPGSV,4,1,13,02,18,043,25,05,30,081,25,12,39,122,25,20,33,142,22*77
$GPGSV,4,2,13,21,36,224,26,25,76,099,28,29,57,340,37,31,30,293,40*70
$GPGSV,4,3,13,33,,,33,40,,,29,18,00,187,,24,00,170,*74
$GPGSV,4,4,13,26,02,313,*4C
$GLGSV,3,1,09,74,19,171,21,70,16,099,17,86,43,291,41,75,63,220,35*60
$GLGSV,3,2,09,69,10,046,18,84,06,050,13,85,44,014,35,87,02,253,*62
$GLGSV,3,3,09,71,02,144,*59
$GPGGA,175636.0,3205.365152,N,03448.186118,E,1,08,0.7,39.5,M,19.0,M,,*6A
$GPVTG,126.2,T,123.2,M,2.4,N,4.4,K,A*20
$GPRMC,175636.0,A,3205.365152,N,03448.186118,E,2.4,126.2,110416,3.0,E,A*0A
$GPGSA,A,2,02,05,12,20,21,25,29,31,,,,,1.1,0.7,0.8*37
$GNGSA,A,2,02,05,12,20,21,25,29,31,,,,,1.1,0.7,0.8*29
$GNGSA,A,2,69,70,74,75,85,86,,,,,,,1.1,0.7,0.8*28
$GPGSV,4,1,13,02,18,043,29,05,30,081,29,12,39,122,24,20,33,142,25*71
$GPGSV,4,2,13,21,36,224,26,25,76,099,29,29,57,340,38,31,30,293,40*7E
$GPGSV,4,3,13,33,,,33,40,,,29,18,00,187,,24,00,170,*74
$GPGSV,4,4,13,26,02,313,*4C
$GLGSV,3,1,09,74,19,171,25,70,16,099,20,86,43,291,42,75,63,220,35*63
$GLGSV,3,2,09,69,10,046,22,84,06,050,13,85,44,014,34,87,02,253,*6A
$GLGSV,3,3,09,71,02,144,*59
$GPGGA,175637.0,3205.364512,N,03448.186932,E,1,08,0.7,39.7,M,19.0,M,,*68
$GPVTG,127.2,T,124.3,M,2.3,N,4.2,K,A*26
$GPRMC,175637.0,A,3205.364512,N,03448.186932,E,2.3,127.2,110416,3.0,E,A*0C
$GPGSA,A,2,02,05,12,20,21,25,29,31,,,,,1.1,0.7,0.8*37
$GNGSA,A,2,02,05,12,20,21,25,29,31,,,,,1.1,0.7,0.8*29
$GNGSA,A,2,69,70,74,75,85,86,,,,,,,1.1,0.7,0.8*28
$GPGSV,4,1,13,02,18,043,28,05,30,081,29,12,39,122,26,20,33,142,23*74
$GPGSV,4,2,13,21,36,224,26,25,76,099,31,29,57,340,38,31,30,293,41*76
$GPGSV,4,3,13,33,,,33,40,,,29,18,00,187,,24,00,170,*74
$GPGSV,4,4,13,26,02,313,*4C
$GLGSV,3,1,09,74,19,171,25,70,16,099,17,86,43,291,41,75,63,220,35*64
$GLGSV,3,2,09,69,10,046,20,84,06,050,13,85,44,014,34,87,02,253,*68
$GLGSV,3,3,09,71,02,144,*59
$GPGGA,175638.0,3205.364011,N,03448.187565,E,1,08,0.7,39.6,M,19.0,M,,*6F
$GPVTG,124.6,T,121.6,M,2.2,N,4.1,K,A*23
$GPRMC,175638.0,A,3205.364011,N,03448.187565,E,2.2,124.6,110416,3.0,E,A*0C
$GPGSA,A,2,02,05,12,20,21,25,29,31,,,,,1.1,0.7,0.8*37
$GNGSA,A,2,02,05,12,20,21,25,29,31,,,,,1.1,0.7,0.8*29
$GNGSA,A,2,69,70,74,75,85,86,,,,,,,1.1,0.7,0.8*28
$GPGSV,4,1,13,02,18,043,34,05,30,081,29,12,39,122,21,20,33,142,27*7A
$GPGSV,4,2,13,21,36,224,31,25,76,099,31,29,57,340,38,31,30,293,43*72
$GPGSV,4,3,13,33,,,33,40,,,29,18,00,187,,24,00,170,*74
$GPGSV,4,4,13,26,02,313,*4C
$GLGSV,3,1,09,74,19,171,19,70,16,099,18,86,43,292,43,75,63,220,36*66
$GLGSV,3,2,09,69,10,046,19,84,06,050,15,85,44,014,36,87,02,253,*66
$GLGSV,3,3,09,71,02,144,*59
$GPGGA,175639.0,3205.364053,N,03448.188870,E,1,08,0.7,38.5,M,19.0,M,,*6C
$GPVTG,126.3,T,123.3,M,2.5,N,4.5,K,A*20
$GPRMC,175639.0,A,3205.364053,N,03448.188870,E,2.5,126.3,110416,3.0,E,A*0D
$GPGSA,A,2,02,05,12,20,21,25,29,31,,,,,1.1,0.7,0.8*37
$GNGSA,A,2,02,05,12,20,21,25,29,31,,,,,1.1,0.7,0.8*29
$GNGSA,A,2,69,70,74,75,85,86,,,,,,,1.1,0.7,0.8*28
$GPGSV,4,1,13,02,18,043,32,05,30,081,28,12,39,122,24,20,33,142,21*7E
$GPGSV,4,2,13,21,36,224,34,25,76,099,26,29,57,340,39,31,30,293,41*72
$GPGSV,4,3,13,33,,,33,40,,,29,18,00,187,,24,00,170,*74
$GPGSV,4,4,13,26,02,313,*4C
$GLGSV,3,1,09,74,19,171,23,70,16,099,18,86,43,292,41,75,63,220,35*6E
$GLGSV,3,2,09,69,10,046,22,84,06,050,15,85,44,014,36,87,02,253,*6E
$GLGSV,3,3,09,71,02,144,*59
$GPGGA,175640.0,3205.363947,N,03448.189641,E,1,08,0.7,38.7,M,19.0,M,,*66
$GPVTG,129.4,T,126.5,M,1.9,N,3.5,K,A*23
$GPRMC,175640.0,A,3205.363947,N,03448.189641,E,1.9,129.4,110416,3.0,E,A*02
$GPGSA,A,2,02,05,12,20,21,25,29,31,,,,,1.1,0.7,0.8*37
$GNGSA,A,2,02,05,12,20,21,25,29,31,,,,,1.1,0.7,0.8*29
$GNGSA,A,2,69,70,74,75,85,86,,,,,,,1.1,0.7,0.8*28
$GPGSV,4,1,13,02,18,043,26,05,30,081,26,12,39,122,24,20,33,142,21*75
$GPGSV,4,2,13,21,36,224,32,25,76,099,19,29,57,340,37,31,30,293,42*75
$GPGSV,4,3,13,33,,,33,40,,,29,18,00,187,,24,00,170,*74
$GPGSV,4,4,13,26,02,313,*4C
$GLGSV,3,1,09,74,19,171,20,70,16,099,18,86,43,292,39,75,63,220,32*65
$GLGSV,3,2,09,69,10,046,22,84,06,050,15,85,44,014,31,87,02,253,*69
$GLGSV,3,3,09,71,02,144,*59
$GPGGA,175641.0,3205.363875,N,03448.190640,E,1,08,0.8,38.5,M,19.0,M,,*63
$GPVTG,111.8,T,108.8,M,1.9,N,3.4,K,A*24
$GPRMC,175641.0,A,3205.363875,N,03448.190640,E,1.9,111.8,110416,3.0,E,A*0D
$GPGSA,A,2,02,05,12,20,21,25,29,31,,,,,1.1,0.8,0.8*38
$GNGSA,A,2,02,05,12,20,21,25,29,31,,,,,1.1,0.8,0.8*26
$GNGSA,A,2,69,74,75,85,86,,,,,,,,1.1,0.8,0.8*20
$GPGSV,4,1,13,02,18,043,29,05,30,081,30,12,39,122,21,20,33,142,23*7A
$GPGSV,4,2,13,21,36,224,33,25,76,099,19,29,57,340,36,31,30,293,38*78
$GPGSV,4,3,13,33,,,33,40,,,29,18,00,187,,24,00,170,*74
$GPGSV,4,4,13,26,02,313,*4C
$GLGSV,3,1,09,74,19,171,20,70,16,099,18,86,43,292,38,75,63,220,28*6F
$GLGSV,3,2,09,69,10,046,16,84,06,050,15,85,44,014,33,87,02,253,*6C
$GLGSV,3,3,09,71,02,144,*59
$GPGGA,175642.0,3205.363712,N,03448.190515,E,1,08,0.8,38.7,M,19.0,M,,*6F
$GPVTG,111.8,T,108.8,M,1.1,N,2.1,K,A*28
$GPRMC,175642.0,A,3205.363712,N,03448.190515,E,1.1,111.8,110416,3.0,E,A*0B
$GPGSA,A,2,02,05,12,20,21,25,29,31,,,,,1.1,0.8,0.8*38
$GNGSA,A,2,02,05,12,20,21,25,29,31,,,,,1.1,0.8,0.8*26
$GNGSA,A,2,69,74,75,85,86,,,,,,,,1.1,0.8,0.8*20
$GPGSV,4,1,13,02,18,043,26,05,30,081,26,12,39,122,21,20,33,142,22*73
$GPGSV,4,2,13,21,36,224,26,25,76,099,21,29,57,340,35,31,30,293,36*7A
$GPGSV,4,3,13,33,,,33,40,,,29,18,00,187,,24,00,170,*74
$GPGSV,4,4,13,26,02,313,*4C
$GLGSV,3,1,09,74,19,171,17,70,16,099,14,86,43,292,38,75,63,220,19*65
$GLGSV,3,2,09,69,10,046,17,84,06,050,15,85,44,014,33,87,02,253,*6D
$GLGSV,3,3,09,71,02,144,*59
$GPGGA,175643.0,3205.363868,N,03448.191359,E,1,08,0.8,38.6,M,19.0,M,,*62
$GPVTG,111.8,T,108.8,M,1.6,N,2.9,K,A*27
$GPRMC,175643.0,A,3205.363868,N,03448.191359,E,1.6,111.8,110416,3.0,E,A*00
$GPGSA,A,2,02,05,12,20,21,25,29,31,,,,,1.1,0.8,0.8*38
$GNGSA,A,2,02,05,12,20,21,25,29,31,,,,,1.1,0.8,0.8*26
$GNGSA,A,2,69,74,75,85,86,,,,,,,,1.1,0.8,0.8*20
$GPGSV,4,1,13,02,18,043,21,05,30,081,23,12,39,122,18,20,33,142,18*72
$GPGSV,4,2,13,21,36,224,23,25,76,099,18,29,57,340,35,31,30,293,36*75
$GPGSV,4,3,13,33,,,33,40,,,29,18,00,187,,24,00,170,*74
$GPGSV,4,4,13,26,02,313,*4C
$GLGSV,3,1,09,74,19,171,20,70,16,099,18,86,43,292,36,75,63,220,18*62
$GLGSV,3,2,09,69,10,046,16,84,06,050,15,85,44,014,30,87,02,253,*6F
$GLGSV,3,3,09,71,02,144,*59
$GPGGA,175644.0,3205.364198,N,03448.191811,E,1,08,0.8,38.4,M,19.0,M,,*61
$GPVTG,111.8,T,108.8,M,2.0,N,3.7,K,A*2D
$GPRMC,175644.0,A,3205.364198,N,03448.191811,E,2.0,111.8,110416,3.0,E,A*04
$GPGSA,A,2,02,05,12,20,21,25,29,31,,,,,1.1,0.8,0.8*38
$GNGSA,A,2,02,05,12,20,21,25,29,31,,,,,1.1,0.8,0.8*26
$GNGSA,A,2,69,74,75,85,86,,,,,,,,1.1,0.8,0.8*20
$GPGSV,4,1,13,02,18,043,23,05,30,081,27,12,39,122,22,20,33,142,19*7C
$GPGSV,4,2,13,21,36,224,21,25,76,099,18,29,57,340,28,31,30,293,40*7A
$GPGSV,4,3,13,33,,,33,40,,,29,18,00,187,,24,00,170,*74
$GPGSV,4,4,13,26,02,313,*4C
$GLGSV,3,1,09,74,19,171,20,70,16,099,19,86,43,292,36,75,63,220,20*68
$GLGSV,3,2,09,69,10,046,18,84,06,050,15,85,44,014,26,87,02,253,*66
$GLGSV,3,3,09,71,02,144,*59
$GPGGA,175645.0,3205.364968,N,03448.192018,E,1,08,0.8,38.2,M,19.0,M,,*63
$GPVTG,111.8,T,108.8,M,1.4,N,2.6,K,A*2A
$GPRMC,175645.0,A,3205.364968,N,03448.192018,E,1.4,111.8,110416,3.0,E,A*07
$GPGSA,A,2,02,05,12,20,21,25,29,31,,,,,1.1,0.8,0.8*38
$GNGSA,A,2,02,05,12,20,21,25,29,31,,,,,1.1,0.8,0.8*26
$GNGSA,A,2,69,74,75,85,86,,,,,,,,1.1,0.8,0.8*20
$GPGSV,4,1,13,02,18,043,22,05,30,081,29,12,39,122,18,20,33,142,19*7A
$GPGSV,4,2,13,21,36,224,22,25,76,099,18,29,57,340,29,31,30,293,36*79
$GPGSV,4,3,13,33,,,33,40,,,29,18,00,187,,24,00,170,*74
$GPGSV,4,4,13,26,02,313,*4C
$GLGSV,3,1,09,74,19,171,20,70,16,099,19,86,43,292,33,75,63,220,19*67
$GLGSV,3,2,09,69,10,046,18,84,06,050,15,85,44,014,25,87,02,253,*65
$GLGSV,3,3,09,71,02,144,*59
$GPGGA,175646.0,3205.365973,N,03448.192467,E,1,08,0.8,38.0,M,19.0,M,,*65
$GPVTG,111.8,T,108.8,M,1.9,N,3.5,K,A*25
$GPRMC,175646.0,A,3205.365973,N,03448.192467,E,1.9,111.8,110416,3.0,E,A*0E
$GPGSA,A,2,02,05,12,20,21,25,29,31,,,,,1.1,0.8,0.8*38
$GNGSA,A,2,02,05,12,20,21,25,29,31,,,,,1.1,0.8,0.8*26
$GNGSA,A,2,69,74,75,85,86,,,,,,,,1.1,0.8,0.8*20
$GPGSV,4,1,13,02,18,043,24,05,30,081,28,12,39,122,18,20,33,142,17*73
$GPGSV,4,2,13,21,36,224,23,25,76,099,18,29,57,340,34,31,30,293,38*7A
$GPGSV,4,3,13,33,,,33,40,,,29,18,00,187,,24,00,170,*74
$GPGSV,4,4,13,26,02,313,*4C
$GLGSV,3,1,09,74,19,171,14,70,16,099,14,86,43,292,39,75,63,220,18*66
$GLGSV,3,2,09,69,10,046,14,84,06,050,15,85,44,014,27,87,02,253,*6B
$GLGSV,3,3,09,71,02,144,*59
$GPGGA,175647.0,3205.367153,N,03448.193521,E,1,08,0.8,37.5,M,19.0,M,,*64
$GPVTG,29.2,T,26.3,M,2.7,N,5.0,K,A*2D
$GPRMC,175647.0,A,3205.367153,N,03448.193521,E,2.7,29.2,110416,3.0,E,A*38
$GPGSA,A,2,02,05,12,20,21,25,29,31,,,,,1.2,0.8,0.8*3B
$GNGSA,A,2,02,05,12,20,21,25,29,31,,,,,1.2,0.8,0.8*25
$GNGSA,A,2,74,75,85,86,,,,,,,,,1.2,0.8,0.8*2C
$GPGSV,4,1,13,02,18,043,27,05,30,081,29,12,39,122,18,20,33,142,19*7F
$GPGSV,4,2,13,21,36,224,22,25,76,099,21,29,57,340,37,31,30,293,40*7D
$GPGSV,4,3,13,33,,,33,40,,,29,18,00,187,,24,00,170,*74
$GPGSV,4,4,13,26,02,313,*4C
$GLGSV,3,1,09,74,19,171,14,70,16,099,18,86,43,292,40,75,63,220,18*64
$GLGSV,3,2,09,69,10,046,17,84,06,050,15,85,44,014,30,87,02,253,*6E
$GLGSV,3,3,09,71,02,144,*59
$GPGGA,175648.0,3205.367434,N,03448.194722,E,1,08,0.8,36.3,M,19.0,M,,*6E
$GPVTG,53.7,T,50.7,M,2.5,N,4.6,K,A*25
$GPRMC,175648.0,A,3205.367434,N,03448.194722,E,2.5,53.7,110416,3.0,E,A*3F
$GPGSA,A,2,02,05,12,20,21,25,29,31,,,,,1.2,0.8,0.8*3B
$GNGSA,A,2,02,05,12,20,21,25,29,31,,,,,1.2,0.8,0.8*25
$GNGSA,A,2,74,75,85,86,,,,,,,,,1.2,0.8,0.8*2C
$GPGSV,4,1,13,02,18,043,23,05,30,081,30,12,39,122,18,20,33,142,19*73
$GPGSV,4,2,13,21,36,224,19,25,76,099,27,29,57,340,36,31,30,293,40*72
$GPGSV,4,3,13,33,,,33,40,,,29,18,00,187,,24,00,170,*74
$GPGSV,4,4,13,26,02,313,*4C
$GLGSV,3,1,09,74,19,171,16,70,16,099,18,86,43,292,35,75,63,220,16*6A
$GLGSV,3,2,09,69,10,046,17,84,06,050,13,85,44,014,33,87,02,253,*6B
$GLGSV,3,3,09,71,02,144,*59
$GPGGA,175649.0,3205.368603,N,03448.196140,E,1,08,0.9,34.7,M,19.0,M,,*61
$GPVTG,41.2,T,38.2,M,2.5,N,4.6,K,A*28
$GPRMC,175649.0,A,3205.368603,N,03448.196140,E,2.5,41.2,110416,3.0,E,A*31
$GPGSA,A,2,02,05,12,20,21,25,29,31,,,,,1.3,0.9,0.9*3A
$GNGSA,A,2,02,05,12,20,21,25,29,31,,,,,1.3,0.9,0.9*24
$GNGSA,A,2,85,86,,,,,,,,,,,1.3,0.9,0.9*2C
$GPGSV,4,1,13,02,18,043,29,05,30,081,29,12,39,122,16,20,33,142,19*7F
$GPGSV,4,2,13,21,36,224,19,25,76,099,25,29,57,340,36,31,30,293,40*70
$GPGSV,4,3,13,33,,,33,40,,,29,18,00,187,,24,00,170,*74
$GPGSV,4,4,13,26,02,313,*4C
$GLGSV,3,1,09,74,19,171,16,70,16,099,16,86,43,292,37,75,63,220,19*69
$GLGSV,3,2,09,69,10,046,18,84,06,050,13,85,44,014,32,87,02,253,*65
$GLGSV,3,3,09,71,02,144,*59
$GPGGA,175650.0,3205.369311,N,03448.197628,E,1,07,1.0,33.9,M,19.0,M,,*68
$GPVTG,74.4,T,71.4,M,2.4,N,4.4,K,A*20
$GPRMC,175650.0,A,3205.369311,N,03448.197628,E,2.4,74.4,110416,3.0,E,A*37
$GPGSA,A,2,02,05,12,21,25,29,31,,,,,,1.4,1.0,0.9*37
$GNGSA,A,2,02,05,12,21,25,29,31,,,,,,1.4,1.0,0.9*29
$GNGSA,A,2,85,86,,,,,,,,,,,1.4,1.0,0.9*23
$GPGSV,4,1,13,02,18,043,27,05,30,081,27,12,39,122,16,20,33,142,19*7F
$GPGSV,4,2,13,21,36,224,23,25,76,099,24,29,57,340,37,31,30,293,40*79
$GPGSV,4,3,13,33,,,33,40,,,29,18,00,187,,24,00,170,*74
$GPGSV,4,4,13,26,02,313,*4C
$GLGSV,3,1,09,74,19,171,16,70,16,099,16,86,43,292,37,75,63,220,18*68
$GLGSV,3,2,09,69,10,046,18,84,06,050,13,85,44,014,29,87,02,253,*6F
$GLGSV,3,3,09,71,02,144,*59
$GPGGA,175651.0,3205.369748,N,03448.198538,E,1,07,1.0,33.8,M,19.0,M,,*6D
$GPVTG,74.4,T,71.4,M,1.9,N,3.6,K,A*2B
$GPRMC,175651.0,A,3205.369748,N,03448.198538,E,1.9,74.4,110416,3.0,E,A*3D
$GPGSA,A,2,02,05,12,21,25,29,31,,,,,,1.4,1.0,0.9*37
$GNGSA,A,2,02,05,12,21,25,29,31,,,,,,1.4,1.0,0.9*29
$GNGSA,A,2,85,86,,,,,,,,,,,1.4,1.0,0.9*23
$GPGSV,4,1,13,02,18,043,27,05,30,081,27,12,39,122,16,20,33,142,18*7E
$GPGSV,4,2,13,21,36,224,19,25,76,099,25,29,57,340,38,31,30,293,40*7E
$GPGSV,4,3,13,33,,,33,40,,,29,18,00,187,,24,00,170,*74
$GPGSV,4,4,13,26,02,313,*4C
$GLGSV,3,1,09,74,19,171,16,70,16,099,16,86,43,292,39,75,63,220,18*66
$GLGSV,3,2,09,69,10,046,18,84,06,050,13,85,44,014,32,87,02,253,*65
$GLGSV,3,3,09,71,02,144,*59
$GPGGA,175652.0,3205.371480,N,03448.198992,E,1,06,1.2,33.4,M,19.0,M,,*63
$GPVTG,46.1,T,43.1,M,2.3,N,4.3,K,A*20
$GPRMC,175652.0,A,3205.371480,N,03448.198992,E,2.3,46.1,110416,3.0,E,A*31
$GPGSA,A,2,02,05,21,25,29,31,,,,,,,1.5,1.2,0.9*37
$GNGSA,A,2,02,05,21,25,29,31,,,,,,,1.5,1.2,0.9*29
$GNGSA,A,2,85,86,,,,,,,,,,,1.5,1.2,0.9*20
$GPGSV,4,1,13,02,18,043,29,05,30,081,27,12,39,122,18,20,33,142,18*7E
$GPGSV,4,2,13,21,36,224,22,25,76,099,23,29,57,340,35,31,30,293,41*7C
$GPGSV,4,3,13,33,,,33,40,,,29,18,00,187,,24,00,170,*74
$GPGSV,4,4,13,26,02,313,*4C
$GLGSV,3,1,09,74,19,171,16,70,16,099,15,86,43,292,41,75,63,220,14*66
$GLGSV,3,2,09,69,10,046,15,84,06,050,13,85,44,014,32,87,02,253,*68
$GLGSV,3,3,09,71,02,144,*59
$GPGGA,175653.0,3205.372209,N,03448.199483,E,1,06,1.2,33.0,M,19.0,M,,*6E
$GPVTG,46.1,T,43.1,M,2.1,N,3.9,K,A*2F
$GPRMC,175653.0,A,3205.372209,N,03448.199483,E,2.1,46.1,110416,3.0,E,A*3A
$GPGSA,A,2,02,05,21,25,29,31,,,,,,,1.5,1.2,0.9*37
$GNGSA,A,2,02,05,21,25,29,31,,,,,,,1.5,1.2,0.9*29
$GNGSA,A,2,85,86,,,,,,,,,,,1.5,1.2,0.9*20
$GPGSV,4,1,13,02,18,043,31,05,30,081,24,12,39,122,18,20,33,142,16*7A
$GPGSV,4,2,13,21,36,224,21,25,76,099,24,29,57,340,38,31,30,293,44*70
$GPGSV,4,3,13,33,,,33,40,,,29,18,00,187,,24,00,170,*74
$GPGSV,4,4,13,26,02,313,*4C
$GLGSV,3,1,09,74,19,171,16,70,16,099,18,86,43,292,43,75,63,220,14*69
$GLGSV,3,2,09,69,10,046,19,84,06,050,13,85,44,014,31,87,02,253,*67
$GLGSV,3,3,09,71,02,144,*59
$GPGGA,175654.0,3205.372340,N,03448.199848,E,1,06,1.2,33.1,M,19.0,M,,*6F
$GPVTG,46.1,T,43.1,M,2.0,N,3.7,K,A*20
$GPRMC,175654.0,A,3205.372340,N,03448.199848,E,2.0,46.1,110416,3.0,E,A*3B
$GPGSA,A,2,02,05,21,25,29,31,,,,,,,1.5,1.2,0.9*37
$GNGSA,A,2,02,05,21,25,29,31,,,,,,,1.5,1.2,0.9*29
$GNGSA,A,2,85,86,,,,,,,,,,,1.5,1.2,0.9*20
$GPGSV,4,1,13,02,18,043,27,05,30,081,29,12,39,122,20,20,33,142,17*7A
$GPGSV,4,2,13,21,36,224,19,25,76,099,21,29,57,340,38,31,30,293,42*78
$GPGSV,4,3,13,33,,,33,40,,,29,18,00,187,,24,00,170,*74
$GPGSV,4,4,13,26,02,313,*4C
$GLGSV,3,1,09,74,19,171,16,70,16,099,20,86,43,292,42,75,63,220,15*62
$GLGSV,3,2,09,69,10,046,18,84,06,050,13,85,44,014,32,87,02,253,*65
$GLGSV,3,3,09,71,02,144,*59
$GPGGA,175655.0,3205.372010,N,03448.201373,E,1,07,1.0,32.3,M,19.0,M,,*69
$GPVTG,46.1,T,43.1,M,2.1,N,3.9,K,A*2F
$GPRMC,175655.0,A,3205.372010,N,03448.201373,E,2.1,46.1,110416,3.0,E,A*3C
$GPGSA,A,2,02,05,12,21,25,29,31,,,,,,1.4,1.0,0.9*37
$GNGSA,A,2,02,05,12,21,25,29,31,,,,,,1.4,1.0,0.9*29
$GNGSA,A,2,85,86,,,,,,,,,,,1.4,1.0,0.9*23
$GPGSV,3,1,12,02,18,043,28,05,30,081,26,12,39,122,18,20,33,142,17*77
$GPGSV,3,2,12,21,36,224,20,25,76,099,20,29,57,340,37,31,30,293,39*76
$GPGSV,3,3,12,40,,,29,18,00,187,,24,00,170,,26,02,313,*45
$GLGSV,3,1,09,74,19,171,16,70,16,099,20,86,43,292,40,75,63,220,15*60
$GLGSV,3,2,09,69,10,046,18,84,06,050,13,85,44,014,29,87,02,253,*6F
$GLGSV,3,3,09,71,02,144,*59
$GPGGA,175656.0,3205.372220,N,03448.202078,E,1,07,1.0,32.3,M,19.0,M,,*60
$GPVTG,46.1,T,43.1,M,2.5,N,4.6,K,A*23
$GPRMC,175656.0,A,3205.372220,N,03448.202078,E,2.5,46.1,110416,3.0,E,A*31
$GPGSA,A,2,02,05,12,21,25,29,31,,,,,,1.4,1.0,0.9*37
$GNGSA,A,2,02,05,12,21,25,29,31,,,,,,1.4,1.0,0.9*29
$GNGSA,A,2,85,86,,,,,,,,,,,1.4,1.0,0.9*23
$GPGSV,3,1,12,02,18,043,28,05,30,081,29,12,39,122,18,20,33,142,18*77
$GPGSV,3,2,12,21,36,224,20,25,76,099,24,29,57,340,36,31,30,293,39*73
$GPGSV,3,3,12,40,,,29,18,00,187,,24,00,170,,26,02,313,*45
$GLGSV,3,1,09,74,19,171,11,70,16,099,22,86,43,292,40,75,63,220,15*65
$GLGSV,3,2,09,69,10,046,18,84,06,050,13,85,44,014,32,87,02,253,*65
$GLGSV,3,3,09,71,02,144,*59
$GPGGA,175657.0,3205.371965,N,03448.203100,E,1,07,0.9,31.1,M,19.0,M,,*6E
$GPVTG,46.1,T,43.1,M,2.6,N,4.8,K,A*2E
$GPRMC,175657.0,A,3205.371965,N,03448.203100,E,2.6,46.1,110416,3.0,E,A*35
$GPGSA,A,2,02,05,12,21,25,29,31,,,,,,1.3,0.9,0.9*38
$GNGSA,A,2,02,05,12,21,25,29,31,,,,,,1.3,0.9,0.9*26
$GNGSA,A,2,70,85,86,,,,,,,,,,1.3,0.9,0.9*2B
$GPGSV,3,1,12,02,18,043,30,05,30,081,29,12,39,122,18,20,33,142,18*7E
$GPGSV,3,2,12,21,36,224,16,25,76,099,21,26,02,313,15,29,57,340,34*71
$GPGSV,3,3,12,31,30,293,40,40,,,29,18,00,187,,24,00,170,*4F
$GLGSV,3,1,09,74,19,171,11,70,16,099,20,86,43,292,41,75,63,220,14*67
$GLGSV,3,2,09,69,10,046,19,84,06,050,13,85,44,014,30,87,02,253,*66
$GLGSV,3,3,09,71,02,144,*59
$GPGGA,175658.0,3205.372862,N,03448.203584,E,1,07,0.9,31.1,M,19.0,M,,*6C
$GPVTG,46.1,T,43.1,M,2.3,N,4.2,K,A*21
$GPRMC,175658.0,A,3205.372862,N,03448.203584,E,2.3,46.1,110416,3.0,E,A*32
$GPGSA,A,2,02,05,12,21,25,29,31,,,,,,1.3,0.9,0.9*38
$GNGSA,A,2,02,05,12,21,25,29,31,,,,,,1.3,0.9,0.9*26
$GNGSA,A,2,70,85,86,,,,,,,,,,1.3,0.9,0.9*2B
$GPGSV,3,1,12,02,18,043,28,05,30,081,26,12,39,122,18,20,33,142,18*78
$GPGSV,3,2,12,21,36,224,21,25,76,099,23,26,02,313,14,29,57,340,37*75
$GPGSV,3,3,12,31,30,293,42,40,,,29,18,00,187,,24,00,170,*4D
$GLGSV,3,1,09,74,19,171,14,70,16,099,19,86,43,292,41,75,63,220,14*68
$GLGSV,3,2,09,69,10,046,19,84,06,050,13,85,44,014,33,87,02,253,*65
$GLGSV,3,3,09,71,02,144,*59
$GPGGA,175659.0,3205.373935,N,03448.203810,E,1,07,0.9,30.9,M,19.0,M,,*66
$GPVTG,46.1,T,43.1,M,2.3,N,4.2,K,A*21
$GPRMC,175659.0,A,3205.373935,N,03448.203810,E,2.3,46.1,110416,3.0,E,A*31
$GPGSA,A,2,02,05,12,21,25,29,31,,,,,,1.3,0.9,0.9*38
$GNGSA,A,2,02,05,12,21,25,29,31,,,,,,1.3,0.9,0.9*26
$GNGSA,A,2,70,85,86,,,,,,,,,,1.3,0.9,0.9*2B
$GPGSV,3,1,12,02,18,043,30,05,30,081,26,12,39,122,17,20,33,142,19*7F
$GPGSV,3,2,12,21,36,224,21,25,76,099,22,26,02,313,14,29,57,340,37*74
$GPGSV,3,3,12,31,30,293,43,40,,,29,18,00,187,,24,00,170,*4C
$GLGSV,3,1,09,74,19,171,14,70,16,099,19,86,43,292,42,75,63,220,14*6B
$GLGSV,3,2,09,69,10,046,20,84,06,050,13,85,44,014,32,87,02,253,*6E
$GLGSV,3,3,09,71,02,144,*59
$GPGGA,175700.0,3205.374702,N,03448.204101,E,1,07,0.9,30.4,M,19.0,M,,*65
$GPVTG,46.1,T,43.1,M,2.3,N,4.2,K,A*21
$GPRMC,175700.0,A,3205.374702,N,03448.204101,E,2.3,46.1,110416,3.0,E,A*3F
$GPGSA,A,2,02,05,12,21,25,29,31,,,,,,1.2,0.9,0.8*38
$GNGSA,A,2,02,05,12,21,25,29,31,,,,,,1.2,0.9,0.8*26
$GNGSA,A,2,69,70,85,86,,,,,,,,,1.2,0.9,0.8*24
$GPGSV,3,1,12,02,18,043,34,05,30,081,30,12,39,122,20,20,33,142,18*79
$GPGSV,3,2,12,21,36,224,21,25,76,099,17,26,02,313,14,29,57,340,36*73
$GPGSV,3,3,12,31,30,293,44,40,,,29,18,00,187,,24,00,170,*4B
$GLGSV,3,1,09,74,19,171,14,70,16,099,18,86,43,292,41,75,63,220,14*69
$GLGSV,3,2,09,69,10,046,17,84,06,050,10,85,44,014,35,87,02,253,*6E
$GLGSV,3,3,09,71,02,144,*59
$GPGGA,175701.0,3205.376582,N,03448.204423,E,1,07,0.9,30.0,M,19.0,M,,*6D
$GPVTG,46.1,T,43.1,M,2.3,N,4.2,K,A*21
$GPRMC,175701.0,A,3205.376582,N,03448.204423,E,2.3,46.1,110416,3.0,E,A*33
$GPGSA,A,2,02,05,12,21,25,29,31,,,,,,1.2,0.9,0.8*38
$GNGSA,A,2,02,05,12,21,25,29,31,,,,,,1.2,0.9,0.8*26
$GNGSA,A,2,69,70,85,86,,,,,,,,,1.2,0.9,0.8*24
$GPGSV,3,1,12,02,18,043,35,05,30,081,27,12,39,122,21,20,33,142,18*7F
$GPGSV,3,2,12,21,36,224,16,25,76,099,18,26,02,313,14,29,57,340,37*79
$GPGSV,3,3,12,31,30,293,42,40,,,29,18,00,187,,24,00,170,*4D
$GLGSV,3,1,09,74,19,171,15,70,16,099,19,86,43,292,41,75,63,220,14*69
$GLGSV,3,2,09,69,10,046,19,84,06,050,10,85,44,014,33,87,02,253,*66
$GLGSV,3,3,09,71,02,144,*59
$GPGGA,175702.0,3205.379880,N,03448.204491,E,1,07,0.9,29.2,M,19.0,M,,*6D
$GPVTG,46.1,T,43.1,M,2.9,N,5.4,K,A*2C
$GPRMC,175702.0,A,3205.379880,N,03448.204491,E,2.9,46.1,110416,3.0,E,A*33
$GPGSA,A,2,02,05,12,21,25,29,31,,,,,,1.2,0.9,0.8*38
$GNGSA,A,2,02,05,12,21,25,29,31,,,,,,1.2,0.9,0.8*26
$GNGSA,A,2,69,70,85,86,,,,,,,,,1.2,0.9,0.8*24
$GPGSV,3,1,12,02,18,043,33,05,30,081,26,12,39,122,22,20,33,142,16*75
$GPGSV,3,2,12,21,36,224,22,25,76,099,18,26,02,313,14,29,57,340,38*71
$GPGSV,3,3,12,31,30,293,40,40,,,29,18,00,187,,24,00,170,*4F
$GLGSV,3,1,09,74,19,171,15,70,16,099,23,86,43,292,33,75,63,220,14*65
$GLGSV,3,2,09,69,10,046,19,84,06,050,10,85,44,014,33,87,02,253,*66
$GLGSV,3,3,09,71,02,144,*59
$GPGGA,175703.0,3205.380687,N,03448.205084,E,1,07,0.9,28.1,M,19.0,M,,*60
$GPVTG,46.1,T,43.1,M,2.9,N,5.3,K,A*2B
$GPRMC,175703.0,A,3205.380687,N,03448.205084,E,2.9,46.1,110416,3.0,E,A*3C
$GPGSA,A,2,02,05,12,21,25,29,31,,,,,,1.2,0.9,0.8*38
$GNGSA,A,2,02,05,12,21,25,29,31,,,,,,1.2,0.9,0.8*26
$GNGSA,A,2,69,70,85,86,,,,,,,,,1.2,0.9,0.8*24
$GPGSV,3,1,12,02,18,043,34,05,30,081,26,12,39,122,22,20,33,142,18*7C
$GPGSV,3,2,12,21,36,224,21,25,76,099,19,26,02,313,14,29,57,340,30*7B
$GPGSV,3,3,12,31,30,293,38,40,,,29,18,00,187,,24,00,170,*40
