$GPRMC,081458.269,V,4054.930,N,07502.495,W,84.4,0.99,040416,,E*46
$GPGGA,081459.269,4054.930,N,07502.495,W,0,00,,,M,,M,,*5A
$GPGLL,4054.930,N,07502.495,W,081500.269,V*37
$GPVTG,0.99,T,,M,84.4,N,156.2,K*68
$GPRMC,081502.269,V,4054.930,N,07502.494,W,28.5,1.07,040416,,E*48
$GPGGA,081503.269,4054.930,N,07502.494,W,0,00,,,M,,M,,*55
$GPGLL,4054.930,N,07502.494,W,081504.269,V*32
$GPVTG,1.07,T,,M,28.5,N,52.9,K*57
$GPRMC,081506.269,V,4054.930,N,07502.492,W,15.0,0.99,040416,,E*47
$GPGGA,081507.269,4054.930,N,07502.492,W,0,00,,,M,,M,,*57
$GPGLL,4054.930,N,07502.492,W,081508.269,V*38
$GPVTG,0.99,T,,M,15.0,N,27.9,K*58
$GPRMC,081510.269,V,4054.930,N,07502.490,W,94.4,0.88,040416,,E*4F
$GPGGA,081511.269,4054.930,N,07502.490,W,0,00,,,M,,M,,*52
$GPGLL,4054.930,N,07502.490,W,081512.269,V*31
$GPVTG,0.88,T,,M,94.4,N,174.9,K*62
$GPRMC,081514.269,V,4054.930,N,07502.488,W,67.6,0.89,040416,,E*4D
$GPGGA,081515.269,4054.930,N,07502.488,W,0,00,,,M,,M,,*5F
$GPGLL,4054.930,N,07502.488,W,081516.269,V*3C
$GPVTG,0.89,T,,M,67.6,N,125.3,K*63
$GPRMC,081518.269,V,4054.930,N,07502.487,W,85.3,0.95,040416,,E*4A
$GPGGA,081519.269,4054.930,N,07502.487,W,0,00,,,M,,M,,*5C
$GPGLL,4054.930,N,07502.487,W,081520.269,V*36
$GPVTG,0.95,T,,M,85.3,N,158.0,K*6E
$GPRMC,081522.269,V,4054.930,N,07502.485,W,3.3,0.96,040416,,E*7C
$GPGGA,081523.269,4054.930,N,07502.485,W,0,00,,,M,,M,,*57
$GPGLL,4054.930,N,07502.485,W,081524.269,V*30
$GPVTG,0.96,T,,M,3.3,N,6.1,K*58
$GPRMC,081526.269,V,4054.931,N,07502.483,W,91.2,0.63,040416,,E*4F
$GPGGA,081527.269,4054.931,N,07502.483,W,0,00,,,M,,M,,*54
$GPGLL,4054.931,N,07502.483,W,081528.269,V*3B
$GPVTG,0.63,T,,M,91.2,N,168.9,K*69
$GPRMC,081530.269,V,4054.932,N,07502.482,W,83.1,0.62,040416,,E*4B
$GPGGA,081531.269,4054.932,N,07502.482,W,0,00,,,M,,M,,*51
$GPGLL,4054.932,N,07502.482,W,081532.269,V*32
$GPVTG,0.62,T,,M,83.1,N,153.8,K*61
$GPRMC,081534.269,V,4054.933,N,07502.480,W,82.4,0.66,040416,,E*4C
$GPGGA,081535.269,4054.933,N,07502.480,W,0,00,,,M,,M,,*56
$GPGLL,4054.933,N,07502.480,W,081536.269,V*35
$GPVTG,0.66,T,,M,82.4,N,152.6,K*6E
$GPRMC,081538.269,V,4054.934,N,07502.479,W,99.7,0.62,040416,,E*4C
$GPGGA,081539.269,4054.934,N,07502.479,W,0,00,,,M,,M,,*5B
$GPGLL,4054.934,N,07502.479,W,081540.269,V*35
$GPVTG,0.62,T,,M,99.7,N,184.6,K*68
$GPRMC,081542.269,V,4054.936,N,07502.478,W,84.1,0.36,040416,,E*49
$GPGGA,081543.269,4054.936,N,07502.478,W,0,00,,,M,,M,,*55
$GPGLL,4054.936,N,07502.478,W,081544.269,V*32
$GPVTG,0.36,T,,M,84.1,N,155.8,K*61
$GPRMC,081546.269,V,4054.938,N,07502.477,W,8.4,0.26,040416,,E*7C
$GPGGA,081547.269,4054.938,N,07502.477,W,0,00,,,M,,M,,*50
$GPGLL,4054.938,N,07502.477,W,081548.269,V*3F
$GPVTG,0.26,T,,M,8.4,N,15.6,K*6A
$GPRMC,081550.269,V,4054.939,N,07502.476,W,16.0,0.30,040416,,E*47
$GPGGA,081551.269,4054.939,N,07502.476,W,0,00,,,M,,M,,*57
$GPGLL,4054.939,N,07502.476,W,081552.269,V*34
$GPVTG,0.30,T,,M,16.0,N,29.7,K*58
$GPRMC,081554.269,V,4054.941,N,07502.475,W,37.3,0.29,040416,,E*47
$GPGGA,081555.269,4054.941,N,07502.475,W,0,00,,,M,,M,,*5F
$GPGLL,4054.941,N,07502.475,W,081556.269,V*3C
$GPVTG,0.29,T,,M,37.3,N,69.0,K*53
$GPRMC,081558.269,V,4054.942,N,07502.475,W,83.7,0.31,040416,,E*4A
$GPGGA,081559.269,4054.942,N,07502.475,W,0,00,,,M,,M,,*50
$GPGLL,4054.942,N,07502.475,W,081600.269,V*3F
$GPVTG,0.31,T,,M,83.7,N,155.1,K*6E
$GPRMC,081602.269,V,4054.944,N,07502.474,W,89.6,0.27,040416,,E*4D
$GPGGA,081603.269,4054.944,N,07502.474,W,0,00,,,M,,M,,*5B
$GPGLL,4054.944,N,07502.474,W,081604.269,V*3C
$GPVTG,0.27,T,,M,89.6,N,165.9,K*69
$GPRMC,081606.269,V,4054.946,N,07502.473,W,19.5,0.31,040416,,E*41
$GPGGA,081607.269,4054.946,N,07502.473,W,0,00,,,M,,M,,*5A
$GPGLL,4054.946,N,07502.473,W,081608.269,V*35
$GPVTG,0.31,T,,M,19.5,N,36.2,K*58
$GPRMC,081610.269,V,4054.947,N,07502.472,W,95.6,0.33,040416,,E*43
$GPGGA,081611.269,4054.947,N,07502.472,W,0,00,,,M,,M,,*5D
$GPGLL,4054.947,N,07502.472,W,081612.269,V*3E
$GPVTG,0.33,T,,M,95.6,N,177.1,K*6A
$GPRMC,081614.269,V,4054.949,N,07502.471,W,44.7,0.43,040416,,E*40
$GPGGA,081615.269,4054.949,N,07502.471,W,0,00,,,M,,M,,*54
$GPGLL,4054.949,N,07502.471,W,081616.269,V*37
$GPVTG,0.43,T,,M,44.7,N,82.7,K*5D
$GPRMC,081618.269,V,4054.950,N,07502.470,W,58.2,0.41,040416,,E*4F
$GPGGA,081619.269,4054.950,N,07502.470,W,0,00,,,M,,M,,*51
$GPGLL,4054.950,N,07502.470,W,081620.269,V*3B
$GPVTG,0.41,T,,M,58.2,N,107.8,K*64
$GPRMC,081622.269,V,4054.951,N,07502.469,W,5.5,0.46,040416,,E*77
$GPGGA,081623.269,4054.951,N,07502.469,W,0,00,,,M,,M,,*51
$GPGLL,4054.951,N,07502.469,W,081624.269,V*36
$GPVTG,0.46,T,,M,5.5,N,10.2,K*61
$GPRMC,081626.269,V,4054.953,N,07502.468,W,15.7,0.38,040416,,E*4A
$GPGGA,081627.269,4054.953,N,07502.468,W,0,00,,,M,,M,,*56
$GPGLL,4054.953,N,07502.468,W,081628.269,V*39
$GPVTG,0.38,T,,M,15.7,N,29.1,K*52
$GPRMC,081630.269,V,4054.954,N,07502.467,W,18.5,0.38,040416,,E*4A
$GPGGA,081631.269,4054.954,N,07502.467,W,0,00,,,M,,M,,*59
$GPGLL,4054.954,N,07502.467,W,081632.269,V*3A
$GPVTG,0.38,T,,M,18.5,N,34.3,K*53
$GPRMC,081634.269,V,4054.956,N,07502.465,W,67.2,0.49,040416,,E*47
$GPGGA,081635.269,4054.956,N,07502.465,W,0,00,,,M,,M,,*5D
$GPGLL,4054.956,N,07502.465,W,081636.269,V*3E
$GPVTG,0.49,T,,M,67.2,N,124.4,K*6D
$GPRMC,081638.269,V,4054.957,N,07502.464,W,25.7,0.55,040416,,E*45
$GPGGA,081639.269,4054.957,N,07502.464,W,0,00,,,M,,M,,*51
$GPGLL,4054.957,N,07502.464,W,081640.269,V*3F
$GPVTG,0.55,T,,M,25.7,N,47.6,K*55
$GPRMC,081642.269,V,4054.958,N,07502.463,W,73.4,0.64,040416,,E*42
$GPGGA,081643.269,4054.958,N,07502.463,W,0,00,,,M,,M,,*54
$GPGLL,4054.958,N,07502.463,W,081644.269,V*33
$GPVTG,0.64,T,,M,73.4,N,135.9,K*6C
$GPRMC,081646.269,V,4054.959,N,07502.461,W,51.2,0.63,040416,,E*44
$GPGGA,081647.269,4054.959,N,07502.461,W,0,00,,,M,,M,,*53
$GPGLL,4054.959,N,07502.461,W,081648.269,V*3C
$GPVTG,0.63,T,,M,51.2,N,94.7,K*59
$GPRMC,081650.269,V,4054.960,N,07502.460,W,34.5,0.61,040416,,E*4E
$GPGGA,081651.269,4054.960,N,07502.460,W,0,00,,,M,,M,,*5F
$GPGLL,4054.960,N,07502.460,W,081652.269,V*3C
$GPVTG,0.61,T,,M,34.5,N,63.8,K*58
$GPRMC,081654.269,V,4054.961,N,07502.458,W,39.0,0.71,040416,,E*49
$GPGGA,081655.269,4054.961,N,07502.458,W,0,00,,,M,,M,,*51
$GPGLL,4054.961,N,07502.458,W,081656.269,V*32
$GPVTG,0.71,T,,M,39.0,N,72.3,K*5A
$GPRMC,081658.269,V,4054.962,N,07502.456,W,98.6,0.64,040416,,E*41
$GPGGA,081659.269,4054.962,N,07502.456,W,0,00,,,M,,M,,*50
$GPGLL,4054.962,N,07502.456,W,081700.269,V*3D
$GPVTG,0.64,T,,M,98.6,N,182.6,K*68
$GPRMC,081702.269,V,4054.963,N,07502.455,W,1.1,0.57,040416,,E*7A
$GPGGA,081703.269,4054.963,N,07502.455,W,0,00,,,M,,M,,*5C
$GPGLL,4054.963,N,07502.455,W,081704.269,V*3B
$GPVTG,0.57,T,,M,1.1,N,2.1,K*51
$GPRMC,081706.269,V,4054.964,N,07502.453,W,97.0,0.64,040416,,E*41
$GPGGA,081707.269,4054.964,N,07502.453,W,0,00,,,M,,M,,*59
$GPGLL,4054.964,N,07502.453,W,081708.269,V*36
$GPVTG,0.64,T,,M,97.0,N,179.6,K*65
$GPRMC,081710.269,V,4054.965,N,07502.452,W,19.8,0.59,040416,,E*46
$GPGGA,081711.269,4054.965,N,07502.452,W,0,00,,,M,,M,,*5E
$GPGLL,4054.965,N,07502.452,W,081712.269,V*3D
$GPVTG,0.59,T,,M,19.8,N,36.8,K*51
$GPRMC,081714.269,V,4054.965,N,07502.450,W,72.3,1.02,040416,,E*49
$GPGGA,081715.269,4054.965,N,07502.450,W,0,00,,,M,,M,,*58
$GPGLL,4054.965,N,07502.450,W,081716.269,V*3B
$GPVTG,1.02,T,,M,72.3,N,133.9,K*6D
$GPRMC,081718.269,V,4054.964,N,07502.448,W,88.2,1.12,040416,,E*48
$GPGGA,081719.269,4054.964,N,07502.448,W,0,00,,,M,,M,,*5C
$GPGLL,4054.964,N,07502.448,W,081720.269,V*36
$GPVTG,1.12,T,,M,88.2,N,163.3,K*67
$GPRMC,081722.269,V,4054.964,N,07502.447,W,20.1,1.04,040416,,E*48
$GPGGA,081723.269,4054.964,N,07502.447,W,0,00,,,M,,M,,*5A
$GPGLL,4054.964,N,07502.447,W,081724.269,V*3D
$GPVTG,1.04,T,,M,20.1,N,37.3,K*51
$GPRMC,081726.269,V,4054.964,N,07502.445,W,78.0,1.13,040416,,E*44
$GPGGA,081727.269,4054.964,N,07502.445,W,0,00,,,M,,M,,*5C
$GPGLL,4054.964,N,07502.445,W,081728.269,V*33
$GPVTG,1.13,T,,M,78.0,N,144.4,K*69
$GPRMC,081730.269,V,4054.963,N,07502.443,W,63.3,1.16,040416,,E*4E
$GPGGA,081731.269,4054.963,N,07502.443,W,0,00,,,M,,M,,*5A
$GPGLL,4054.963,N,07502.443,W,081732.269,V*39
$GPVTG,1.16,T,,M,63.3,N,117.2,K*65
$GPRMC,081734.269,V,4054.963,N,07502.441,W,45.0,1.24,040416,,E*4E
$GPGGA,081735.269,4054.963,N,07502.441,W,0,00,,,M,,M,,*5C
$GPGLL,4054.963,N,07502.441,W,081736.269,V*3F
$GPVTG,1.24,T,,M,45.0,N,83.3,K*5E
$GPRMC,081738.269,V,4054.962,N,07502.440,W,9.9,1.13,040416,,E*77
$GPGGA,081739.269,4054.962,N,07502.440,W,0,00,,,M,,M,,*50
$GPGLL,4054.962,N,07502.440,W,081740.269,V*3E
$GPVTG,1.13,T,,M,9.9,N,18.4,K*6E
$GPRMC,081742.269,V,4054.962,N,07502.438,W,36.8,1.02,040416,,E*48
$GPGGA,081743.269,4054.962,N,07502.438,W,0,00,,,M,,M,,*52
$GPGLL,4054.962,N,07502.438,W,081744.269,V*35
$GPVTG,1.02,T,,M,36.8,N,68.1,K*51
$GPRMC,081746.269,V,4054.962,N,07502.436,W,10.8,1.08,040416,,E*4C
$GPGGA,081747.269,4054.962,N,07502.436,W,0,00,,,M,,M,,*58
$GPGLL,4054.962,N,07502.436,W,081748.269,V*37
$GPVTG,1.08,T,,M,10.8,N,20.0,K*52
$GPRMC,081750.269,V,4054.962,N,07502.434,W,74.3,1.13,040416,,E*4A
$GPGGA,081751.269,4054.962,N,07502.434,W,0,00,,,M,,M,,*5D
$GPGLL,4054.962,N,07502.434,W,081752.269,V*3E
$GPVTG,1.13,T,,M,74.3,N,137.6,K*60
$GPRMC,081754.269,V,4054.961,N,07502.433,W,56.1,1.22,040416,,E*4A
$GPGGA,081755.269,4054.961,N,07502.433,W,0,00,,,M,,M,,*5D
$GPGLL,4054.961,N,07502.433,W,081756.269,V*3E
$GPVTG,1.22,T,,M,56.1,N,103.9,K*68
$GPRMC,081758.269,V,4054.960,N,07502.431,W,68.3,1.28,040416,,E*40
$GPGGA,081759.269,4054.960,N,07502.431,W,0,00,,,M,,M,,*52
$GPGLL,4054.960,N,07502.431,W,081800.269,V*31
$GPVTG,1.28,T,,M,68.3,N,126.6,K*65
$GPRMC,081802.269,V,4054.960,N,07502.429,W,81.5,1.01,040416,,E*43
$GPGGA,081803.269,4054.960,N,07502.429,W,0,00,,,M,,M,,*5B
$GPGLL,4054.960,N,07502.429,W,081804.269,V*3C
$GPVTG,1.01,T,,M,81.5,N,150.9,K*61
$GPRMC,081806.269,V,4054.960,N,07502.427,W,0.8,1.05,040416,,E*79
$GPGGA,081807.269,4054.960,N,07502.427,W,0,00,,,M,,M,,*51
$GPGLL,4054.960,N,07502.427,W,081808.269,V*3E
$GPVTG,1.05,T,,M,0.8,N,1.6,K*5B
$GPRMC,081810.269,V,4054.960,N,07502.426,W,47.3,1.08,040416,,E*4A
$GPGGA,081811.269,4054.960,N,07502.426,W,0,00,,,M,,M,,*57
$GPGLL,4054.960,N,07502.426,W,081812.269,V*34
$GPVTG,1.08,T,,M,47.3,N,87.6,K*50
$GPRMC,081814.269,V,4054.960,N,07502.424,W,43.6,1.03,040416,,E*46
$GPGGA,081815.269,4054.960,N,07502.424,W,0,00,,,M,,M,,*51
$GPGLL,4054.960,N,07502.424,W,081816.269,V*32
$GPVTG,1.03,T,,M,43.6,N,80.8,K*53
$GPRMC,081818.269,V,4054.960,N,07502.422,W,82.3,1.10,040416,,E*46
$GPGGA,081819.269,4054.960,N,07502.422,W,0,00,,,M,,M,,*5B
$GPGLL,4054.960,N,07502.422,W,081820.269,V*31
$GPVTG,1.10,T,,M,82.3,N,152.4,K*6B
$GPRMC,081822.269,V,4054.959,N,07502.420,W,56.1,1.14,040416,,E*48
$GPGGA,081823.269,4054.959,N,07502.420,W,0,00,,,M,,M,,*5A
$GPGLL,4054.959,N,07502.420,W,081824.269,V*3D
$GPVTG,1.14,T,,M,56.1,N,103.9,K*6D
$GPRMC,081826.269,V,4054.959,N,07502.419,W,6.2,1.19,040416,,E*7D
$GPGGA,081827.269,4054.959,N,07502.419,W,0,00,,,M,,M,,*54
$GPGLL,4054.959,N,07502.419,W,081828.269,V*3B
$GPVTG,1.19,T,,M,6.2,N,11.4,K*69
$GPRMC,081830.269,V,4054.957,N,07502.418,W,31.8,1.63,040416,,E*46
$GPGGA,081831.269,4054.957,N,07502.418,W,0,00,,,M,,M,,*5C
$GPGLL,4054.957,N,07502.418,W,081832.269,V*3F
$GPVTG,1.63,T,,M,31.8,N,58.9,K*5A
$GPRMC,081834.269,V,4054.955,N,07502.417,W,81.8,1.84,040416,,E*4D
$GPGGA,081835.269,4054.955,N,07502.417,W,0,00,,,M,,M,,*55
$GPGLL,4054.955,N,07502.417,W,081836.269,V*36
$GPVTG,1.84,T,,M,81.8,N,151.6,K*6F
$GPRMC,081838.269,V,4054.954,N,07502.417,W,18.7,1.83,040416,,E*48
$GPGGA,081839.269,4054.954,N,07502.417,W,0,00,,,M,,M,,*58
$GPGLL,4054.954,N,07502.417,W,081840.269,V*36
$GPVTG,1.83,T,,M,18.7,N,34.7,K*54
$GPRMC,081842.269,V,4054.952,N,07502.416,W,13.9,1.86,040416,,E*42
$GPGGA,081843.269,4054.952,N,07502.416,W,0,00,,,M,,M,,*52
$GPGLL,4054.952,N,07502.416,W,081844.269,V*35
$GPVTG,1.86,T,,M,13.9,N,25.8,K*5B
$GPRMC,081846.269,V,4054.950,N,07502.416,W,48.5,1.77,040416,,E*48
$GPGGA,081847.269,4054.950,N,07502.416,W,0,00,,,M,,M,,*54
$GPGLL,4054.950,N,07502.416,W,081848.269,V*3B
$GPVTG,1.77,T,,M,48.5,N,89.8,K*51
$GPRMC,081850.269,V,4054.948,N,07502.415,W,84.6,1.87,040416,,E*49
$GPGGA,081851.269,4054.948,N,07502.415,W,0,00,,,M,,M,,*59
$GPGLL,4054.948,N,07502.415,W,081852.269,V*3A
$GPVTG,1.87,T,,M,84.6,N,156.7,K*61
$GPRMC,081854.269,V,4054.947,N,07502.415,W,66.6,1.88,040416,,E*41
$GPGGA,081855.269,4054.947,N,07502.415,W,0,00,,,M,,M,,*52
$GPGLL,4054.947,N,07502.415,W,081856.269,V*31
$GPVTG,1.88,T,,M,66.6,N,123.3,K*64
$GPRMC,081858.269,V,4054.945,N,07502.415,W,55.7,1.85,040416,,E*43
$GPGGA,081859.269,4054.945,N,07502.415,W,0,00,,,M,,M,,*5C
$GPGLL,4054.945,N,07502.415,W,081900.269,V*31
$GPVTG,1.85,T,,M,55.7,N,103.2,K*6B
$GPRMC,081902.269,V,4054.943,N,07502.414,W,2.2,1.75,040416,,E*72
$GPGGA,081903.269,4054.943,N,07502.414,W,0,00,,,M,,M,,*55
$GPGLL,4054.943,N,07502.414,W,081904.269,V*32
$GPVTG,1.75,T,,M,2.2,N,4.1,K*56
$GPRMC,081906.269,V,4054.942,N,07502.413,W,70.0,1.65,040416,,E*46
$GPGGA,081907.269,4054.942,N,07502.413,W,0,00,,,M,,M,,*57
$GPGLL,4054.942,N,07502.413,W,081908.269,V*38
$GPVTG,1.65,T,,M,70.0,N,129.7,K*68
$GPRMC,081910.269,V,4054.940,N,07502.412,W,97.5,1.68,040416,,E*43
$GPGGA,081911.269,4054.940,N,07502.412,W,0,00,,,M,,M,,*53
$GPGLL,4054.940,N,07502.412,W,081912.269,V*30
$GPVTG,1.68,T,,M,97.5,N,180.5,K*68
$GPRMC,081914.269,V,4054.939,N,07502.411,W,40.2,1.62,040416,,E*4D
$GPGGA,081915.269,4054.939,N,07502.411,W,0,00,,,M,,M,,*5A
$GPGLL,4054.939,N,07502.411,W,081916.269,V*39
$GPVTG,1.62,T,,M,40.2,N,74.5,K*55
$GPRMC,081918.269,V,4054.937,N,07502.410,W,64.2,1.63,040416,,E*49
$GPGGA,081919.269,4054.937,N,07502.410,W,0,00,,,M,,M,,*59
$GPGLL,4054.937,N,07502.410,W,081920.269,V*33
$GPVTG,1.63,T,,M,64.2,N,118.9,K*65
$GPRMC,081922.269,V,4054.936,N,07502.409,W,80.4,1.67,040416,,E*41
$GPGGA,081923.269,4054.936,N,07502.409,W,0,00,,,M,,M,,*59
$GPGLL,4054.936,N,07502.409,W,081924.269,V*3E
$GPVTG,1.67,T,,M,80.4,N,148.9,K*68
$GPRMC,081926.269,V,4054.934,N,07502.408,W,71.4,1.63,040416,,E*4C
$GPGGA,081927.269,4054.934,N,07502.408,W,0,00,,,M,,M,,*5E
$GPGLL,4054.934,N,07502.408,W,081928.269,V*31
$GPVTG,1.63,T,,M,71.4,N,132.2,K*64
$GPRMC,081930.269,V,4054.933,N,07502.407,W,46.7,1.52,040416,,E*46
$GPGGA,081931.269,4054.933,N,07502.407,W,0,00,,,M,,M,,*51
$GPGLL,4054.933,N,07502.407,W,081932.269,V*32
$GPVTG,1.52,T,,M,46.7,N,86.4,K*59
$GPRMC,081934.269,V,4054.931,N,07502.406,W,52.4,1.60,040416,,E*46
$GPGGA,081935.269,4054.931,N,07502.406,W,0,00,,,M,,M,,*56
$GPGLL,4054.931,N,07502.406,W,081936.269,V*35
$GPVTG,1.60,T,,M,52.4,N,97.0,K*5A
$GPRMC,081938.269,V,4054.930,N,07502.405,W,15.0,1.52,040416,,E*4E
$GPGGA,081939.269,4054.930,N,07502.405,W,0,00,,,M,,M,,*58
$GPGLL,4054.930,N,07502.405,W,081940.269,V*36
$GPVTG,1.52,T,,M,15.0,N,27.7,K*50
$GPRMC,081942.269,V,4054.929,N,07502.403,W,4.4,1.48,040416,,E*72
$GPGGA,081943.269,4054.929,N,07502.403,W,0,00,,,M,,M,,*5B
$GPGLL,4054.929,N,07502.403,W,081944.269,V*3C
$GPVTG,1.48,T,,M,4.4,N,8.1,K*54
$GPRMC,081946.269,V,4054.928,N,07502.402,W,8.1,1.41,040416,,E*76
$GPGGA,081947.269,4054.928,N,07502.402,W,0,00,,,M,,M,,*5F
$GPGLL,4054.928,N,07502.402,W,081948.269,V*30
$GPVTG,1.41,T,,M,8.1,N,15.0,K*69
$GPRMC,081950.269,V,4054.927,N,07502.400,W,21.1,1.42,040416,,E*44
$GPGGA,081951.269,4054.927,N,07502.400,W,0,00,,,M,,M,,*55
$GPGLL,4054.927,N,07502.400,W,081952.269,V*36
$GPVTG,1.42,T,,M,21.1,N,39.0,K*5F
$GPRMC,081954.269,V,4054.925,N,07502.399,W,5.8,1.51,040416,,E*78
$GPGGA,081955.269,4054.925,N,07502.399,W,0,00,,,M,,M,,*54
$GPGLL,4054.925,N,07502.399,W,081956.269,V*37
$GPVTG,1.51,T,,M,5.8,N,10.7,K*6E
$GPRMC,081958.269,V,4054.924,N,07502.398,W,78.4,1.48,040416,,E*4A
$GPGGA,081959.269,4054.924,N,07502.398,W,0,00,,,M,,M,,*58
$GPGLL,4054.924,N,07502.398,W,082000.269,V*3E
$GPVTG,1.48,T,,M,78.4,N,145.2,K*64
$GPRMC,082002.269,V,4054.923,N,07502.397,W,89.7,1.50,040416,,E*43
$GPGGA,082003.269,4054.923,N,07502.397,W,0,00,,,M,,M,,*55
$GPGLL,4054.923,N,07502.397,W,082004.269,V*32
$GPVTG,1.50,T,,M,89.7,N,166.1,K*62
$GPRMC,082006.269,V,4054.921,N,07502.396,W,2.5,1.57,040416,,E*72
$GPGGA,082007.269,4054.921,N,07502.396,W,0,00,,,M,,M,,*52
$GPGLL,4054.921,N,07502.396,W,082008.269,V*3D
$GPVTG,1.57,T,,M,2.5,N,4.7,K*57
$GPRMC,082010.269,V,4054.920,N,07502.394,W,47.4,1.48,040416,,E*48
$GPGGA,082011.269,4054.920,N,07502.394,W,0,00,,,M,,M,,*56
$GPGLL,4054.920,N,07502.394,W,082012.269,V*35
$GPVTG,1.48,T,,M,47.4,N,87.8,K*5D
$GPRMC,082014.269,V,4054.919,N,07502.393,W,27.1,1.28,040416,,E*44
$GPGGA,082015.269,4054.919,N,07502.393,W,0,00,,,M,,M,,*5F
$GPGLL,4054.919,N,07502.393,W,082016.269,V*3C
$GPVTG,1.28,T,,M,27.1,N,50.2,K*58
$GPRMC,082018.269,V,4054.919,N,07502.391,W,55.5,1.28,040416,,E*4B
$GPGGA,082019.269,4054.919,N,07502.391,W,0,00,,,M,,M,,*51
$GPGLL,4054.919,N,07502.391,W,082020.269,V*3B
$GPVTG,1.28,T,,M,55.5,N,102.8,K*65
$GPRMC,082022.269,V,4054.918,N,07502.389,W,4.4,1.29,040416,,E*7E
$GPGGA,082023.269,4054.918,N,07502.389,W,0,00,,,M,,M,,*50
$GPGLL,4054.918,N,07502.389,W,082024.269,V*37
$GPVTG,1.29,T,,M,4.4,N,8.1,K*53
$GPRMC,082026.269,V,4054.917,N,07502.388,W,82.3,1.29,040416,,E*4D
$GPGGA,082027.269,4054.917,N,07502.388,W,0,00,,,M,,M,,*5A
$GPGLL,4054.917,N,07502.388,W,082028.269,V*35
$GPVTG,1.29,T,,M,82.3,N,152.4,K*61
$GPRMC,082030.269,V,4054.916,N,07502.386,W,5.9,1.28,040416,,E*71
$GPGGA,082031.269,4054.916,N,07502.386,W,0,00,,,M,,M,,*52
$GPGLL,4054.916,N,07502.386,W,082032.269,V*31
$GPVTG,1.28,T,,M,5.9,N,11.0,K*67
$GPRMC,082034.269,V,4054.915,N,07502.384,W,31.4,1.31,040416,,E*46
$GPGGA,082035.269,4054.915,N,07502.384,W,0,00,,,M,,M,,*57
$GPGLL,4054.915,N,07502.384,W,082036.269,V*34
$GPVTG,1.31,T,,M,31.4,N,58.2,K*5A
$GPRMC,082038.269,V,4054.915,N,07502.383,W,61.1,1.27,040416,,E*4A
$GPGGA,082039.269,4054.915,N,07502.383,W,0,00,,,M,,M,,*5C
$GPGLL,4054.915,N,07502.383,W,082040.269,V*32
$GPVTG,1.27,T,,M,61.1,N,113.1,K*60
$GPRMC,082042.269,V,4054.914,N,07502.381,W,38.8,1.33,040416,,E*44
$GPGGA,082043.269,4054.914,N,07502.381,W,0,00,,,M,,M,,*52
$GPGLL,4054.914,N,07502.381,W,082044.269,V*35
$GPVTG,1.33,T,,M,38.8,N,71.9,K*5D
$GPRMC,082046.269,V,4054.912,N,07502.381,W,88.1,1.82,040416,,E*4E
$GPGGA,082047.269,4054.912,N,07502.381,W,0,00,,,M,,M,,*50
$GPGLL,4054.912,N,07502.381,W,082048.269,V*3F
$GPVTG,1.82,T,,M,88.1,N,163.1,K*6F
$GPRMC,082050.269,V,4054.910,N,07502.380,W,74.0,1.76,040416,,E*43
$GPGGA,082051.269,4054.910,N,07502.380,W,0,00,,,M,,M,,*54
$GPGLL,4054.910,N,07502.380,W,082052.269,V*37
$GPVTG,1.76,T,,M,74.0,N,137.0,K*66
$GPRMC,082054.269,V,4054.909,N,07502.379,W,55.7,1.75,040416,,E*4E
$GPGGA,082055.269,4054.909,N,07502.379,W,0,00,,,M,,M,,*5E
$GPGLL,4054.909,N,07502.379,W,082056.269,V*3D
$GPVTG,1.75,T,,M,55.7,N,103.2,K*64
$GPRMC,082058.269,V,4054.907,N,07502.379,W,8.4,1.75,040416,,E*77
$GPGGA,082059.269,4054.907,N,07502.379,W,0,00,,,M,,M,,*5C
$GPGLL,4054.907,N,07502.379,W,082100.269,V*31
$GPVTG,1.75,T,,M,8.4,N,15.6,K*6D
$GPRMC,082102.269,V,4054.906,N,07502.378,W,11.7,1.69,040416,,E*4F
$GPGGA,082103.269,4054.906,N,07502.378,W,0,00,,,M,,M,,*52
$GPGLL,4054.906,N,07502.378,W,082104.269,V*35
$GPVTG,1.69,T,,M,11.7,N,21.7,K*5D
$GPRMC,082106.269,V,4054.904,N,07502.377,W,31.1,1.79,040416,,E*43
$GPGGA,082107.269,4054.904,N,07502.377,W,0,00,,,M,,M,,*5B
$GPGLL,4054.904,N,07502.377,W,082108.269,V*34
$GPVTG,1.79,T,,M,31.1,N,57.6,K*58
$GPRMC,082110.269,V,4054.902,N,07502.377,W,64.7,1.77,040416,,E*4A
$GPGGA,082111.269,4054.902,N,07502.377,W,0,00,,,M,,M,,*5A
$GPGLL,4054.902,N,07502.377,W,082112.269,V*39
$GPVTG,1.77,T,,M,64.7,N,119.8,K*65
$GPRMC,082114.269,V,4054.900,N,07502.376,W,79.4,1.80,040416,,E*4A
$GPGGA,082115.269,4054.900,N,07502.376,W,0,00,,,M,,M,,*5D
$GPGLL,4054.900,N,07502.376,W,082116.269,V*3E
$GPVTG,1.80,T,,M,79.4,N,147.0,K*61
$GPRMC,082118.269,V,4054.899,N,07502.376,W,63.8,1.82,040416,,E*42
$GPGGA,082119.269,4054.899,N,07502.376,W,0,00,,,M,,M,,*50
$GPGLL,4054.899,N,07502.376,W,082120.269,V*3A
$GPVTG,1.82,T,,M,63.8,N,118.2,K*6C
$GPRMC,082122.269,V,4054.897,N,07502.375,W,64.6,1.89,040416,,E*44
$GPGGA,082123.269,4054.897,N,07502.375,W,0,00,,,M,,M,,*54
$GPGLL,4054.897,N,07502.375,W,082124.269,V*33
$GPVTG,1.89,T,,M,64.6,N,119.7,K*6A
$GPRMC,082126.269,V,4054.895,N,07502.375,W,61.2,1.97,040416,,E*4C
$GPGGA,082127.269,4054.895,N,07502.375,W,0,00,,,M,,M,,*52
$GPGLL,4054.895,N,07502.375,W,082128.269,V*3D
$GPVTG,1.97,T,,M,61.2,N,113.4,K*6D
$GPRMC,082130.269,V,4054.893,N,07502.375,W,54.6,1.94,040416,,E*4C
$GPGGA,082131.269,4054.893,N,07502.375,W,0,00,,,M,,M,,*53
$GPGLL,4054.893,N,07502.375,W,082132.269,V*30
$GPVTG,1.94,T,,M,54.6,N,101.1,K*6A
$GPRMC,082134.269,V,4054.892,N,07502.375,W,27.4,1.96,040416,,E*4D
$GPGGA,082135.269,4054.892,N,07502.375,W,0,00,,,M,,M,,*56
$GPGLL,4054.892,N,07502.375,W,082136.269,V*35
$GPVTG,1.96,T,,M,27.4,N,50.8,K*52$GPRMC,081458.269,V,4054.930,N,07502.495,W,84.4,0.99,040416,,E*46
$GPGGA,081459.269,4054.930,N,07502.495,W,0,00,,,M,,M,,*5A
$GPGLL,4054.930,N,07502.495,W,081500.269,V*37
$GPVTG,0.99,T,,M,84.4,N,156.2,K*68
$GPRMC,081502.269,V,4054.930,N,07502.494,W,28.5,1.07,040416,,E*48
$GPGGA,081503.269,4054.930,N,07502.494,W,0,00,,,M,,M,,*55
$GPGLL,4054.930,N,07502.494,W,081504.269,V*32
$GPVTG,1.07,T,,M,28.5,N,52.9,K*57
$GPRMC,081506.269,V,4054.930,N,07502.492,W,15.0,0.99,040416,,E*47
$GPGGA,081507.269,4054.930,N,07502.492,W,0,00,,,M,,M,,*57
$GPGLL,4054.930,N,07502.492,W,081508.269,V*38
$GPVTG,0.99,T,,M,15.0,N,27.9,K*58
$GPRMC,081510.269,V,4054.930,N,07502.490,W,94.4,0.88,040416,,E*4F
$GPGGA,081511.269,4054.930,N,07502.490,W,0,00,,,M,,M,,*52
$GPGLL,4054.930,N,07502.490,W,081512.269,V*31
$GPVTG,0.88,T,,M,94.4,N,174.9,K*62
$GPRMC,081514.269,V,4054.930,N,07502.488,W,67.6,0.89,040416,,E*4D
$GPGGA,081515.269,4054.930,N,07502.488,W,0,00,,,M,,M,,*5F
$GPGLL,4054.930,N,07502.488,W,081516.269,V*3C
$GPVTG,0.89,T,,M,67.6,N,125.3,K*63
$GPRMC,081518.269,V,4054.930,N,07502.487,W,85.3,0.95,040416,,E*4A
$GPGGA,081519.269,4054.930,N,07502.487,W,0,00,,,M,,M,,*5C
$GPGLL,4054.930,N,07502.487,W,081520.269,V*36
$GPVTG,0.95,T,,M,85.3,N,158.0,K*6E
$GPRMC,081522.269,V,4054.930,N,07502.485,W,3.3,0.96,040416,,E*7C
$GPGGA,081523.269,4054.930,N,07502.485,W,0,00,,,M,,M,,*57
$GPGLL,4054.930,N,07502.485,W,081524.269,V*30
$GPVTG,0.96,T,,M,3.3,N,6.1,K*58
$GPRMC,081526.269,V,4054.931,N,07502.483,W,91.2,0.63,040416,,E*4F
$GPGGA,081527.269,4054.931,N,07502.483,W,0,00,,,M,,M,,*54
$GPGLL,4054.931,N,07502.483,W,081528.269,V*3B
$GPVTG,0.63,T,,M,91.2,N,168.9,K*69
$GPRMC,081530.269,V,4054.932,N,07502.482,W,83.1,0.62,040416,,E*4B
$GPGGA,081531.269,4054.932,N,07502.482,W,0,00,,,M,,M,,*51
$GPGLL,4054.932,N,07502.482,W,081532.269,V*32
$GPVTG,0.62,T,,M,83.1,N,153.8,K*61
$GPRMC,081534.269,V,4054.933,N,07502.480,W,82.4,0.66,040416,,E*4C
$GPGGA,081535.269,4054.933,N,07502.480,W,0,00,,,M,,M,,*56
$GPGLL,4054.933,N,07502.480,W,081536.269,V*35
$GPVTG,0.66,T,,M,82.4,N,152.6,K*6E
$GPRMC,081538.269,V,4054.934,N,07502.479,W,99.7,0.62,040416,,E*4C
$GPGGA,081539.269,4054.934,N,07502.479,W,0,00,,,M,,M,,*5B
$GPGLL,4054.934,N,07502.479,W,081540.269,V*35
$GPVTG,0.62,T,,M,99.7,N,184.6,K*68
$GPRMC,081542.269,V,4054.936,N,07502.478,W,84.1,0.36,040416,,E*49
$GPGGA,081543.269,4054.936,N,07502.478,W,0,00,,,M,,M,,*55
$GPGLL,4054.936,N,07502.478,W,081544.269,V*32
$GPVTG,0.36,T,,M,84.1,N,155.8,K*61
$GPRMC,081546.269,V,4054.938,N,07502.477,W,8.4,0.26,040416,,E*7C
$GPGGA,081547.269,4054.938,N,07502.477,W,0,00,,,M,,M,,*50
$GPGLL,4054.938,N,07502.477,W,081548.269,V*3F
$GPVTG,0.26,T,,M,8.4,N,15.6,K*6A
$GPRMC,081550.269,V,4054.939,N,07502.476,W,16.0,0.30,040416,,E*47
$GPGGA,081551.269,4054.939,N,07502.476,W,0,00,,,M,,M,,*57
$GPGLL,4054.939,N,07502.476,W,081552.269,V*34
$GPVTG,0.30,T,,M,16.0,N,29.7,K*58
$GPRMC,081554.269,V,4054.941,N,07502.475,W,37.3,0.29,040416,,E*47
$GPGGA,081555.269,4054.941,N,07502.475,W,0,00,,,M,,M,,*5F
$GPGLL,4054.941,N,07502.475,W,081556.269,V*3C
$GPVTG,0.29,T,,M,37.3,N,69.0,K*53
$GPRMC,081558.269,V,4054.942,N,07502.475,W,83.7,0.31,040416,,E*4A
$GPGGA,081559.269,4054.942,N,07502.475,W,0,00,,,M,,M,,*50
$GPGLL,4054.942,N,07502.475,W,081600.269,V*3F
$GPVTG,0.31,T,,M,83.7,N,155.1,K*6E
$GPRMC,081602.269,V,4054.944,N,07502.474,W,89.6,0.27,040416,,E*4D
$GPGGA,081603.269,4054.944,N,07502.474,W,0,00,,,M,,M,,*5B
$GPGLL,4054.944,N,07502.474,W,081604.269,V*3C
$GPVTG,0.27,T,,M,89.6,N,165.9,K*69
$GPRMC,081606.269,V,4054.946,N,07502.473,W,19.5,0.31,040416,,E*41
$GPGGA,081607.269,4054.946,N,07502.473,W,0,00,,,M,,M,,*5A
$GPGLL,4054.946,N,07502.473,W,081608.269,V*35
$GPVTG,0.31,T,,M,19.5,N,36.2,K*58
$GPRMC,081610.269,V,4054.947,N,07502.472,W,95.6,0.33,040416,,E*43
$GPGGA,081611.269,4054.947,N,07502.472,W,0,00,,,M,,M,,*5D
$GPGLL,4054.947,N,07502.472,W,081612.269,V*3E
$GPVTG,0.33,T,,M,95.6,N,177.1,K*6A
$GPRMC,081614.269,V,4054.949,N,07502.471,W,44.7,0.43,040416,,E*40
$GPGGA,081615.269,4054.949,N,07502.471,W,0,00,,,M,,M,,*54
$GPGLL,4054.949,N,07502.471,W,081616.269,V*37
$GPVTG,0.43,T,,M,44.7,N,82.7,K*5D
$GPRMC,081618.269,V,4054.950,N,07502.470,W,58.2,0.41,040416,,E*4F
$GPGGA,081619.269,4054.950,N,07502.470,W,0,00,,,M,,M,,*51
$GPGLL,4054.950,N,07502.470,W,081620.269,V*3B
$GPVTG,0.41,T,,M,58.2,N,107.8,K*64
$GPRMC,081622.269,V,4054.951,N,07502.469,W,5.5,0.46,040416,,E*77
$GPGGA,081623.269,4054.951,N,07502.469,W,0,00,,,M,,M,,*51
$GPGLL,4054.951,N,07502.469,W,081624.269,V*36
$GPVTG,0.46,T,,M,5.5,N,10.2,K*61
$GPRMC,081626.269,V,4054.953,N,07502.468,W,15.7,0.38,040416,,E*4A
$GPGGA,081627.269,4054.953,N,07502.468,W,0,00,,,M,,M,,*56
$GPGLL,4054.953,N,07502.468,W,081628.269,V*39
$GPVTG,0.38,T,,M,15.7,N,29.1,K*52
$GPRMC,081630.269,V,4054.954,N,07502.467,W,18.5,0.38,040416,,E*4A
$GPGGA,081631.269,4054.954,N,07502.467,W,0,00,,,M,,M,,*59
$GPGLL,4054.954,N,07502.467,W,081632.269,V*3A
$GPVTG,0.38,T,,M,18.5,N,34.3,K*53
$GPRMC,081634.269,V,4054.956,N,07502.465,W,67.2,0.49,040416,,E*47
$GPGGA,081635.269,4054.956,N,07502.465,W,0,00,,,M,,M,,*5D
$GPGLL,4054.956,N,07502.465,W,081636.269,V*3E
$GPVTG,0.49,T,,M,67.2,N,124.4,K*6D
$GPRMC,081638.269,V,4054.957,N,07502.464,W,25.7,0.55,040416,,E*45
$GPGGA,081639.269,4054.957,N,07502.464,W,0,00,,,M,,M,,*51
$GPGLL,4054.957,N,07502.464,W,081640.269,V*3F
$GPVTG,0.55,T,,M,25.7,N,47.6,K*55
$GPRMC,081642.269,V,4054.958,N,07502.463,W,73.4,0.64,040416,,E*42
$GPGGA,081643.269,4054.958,N,07502.463,W,0,00,,,M,,M,,*54
$GPGLL,4054.958,N,07502.463,W,081644.269,V*33
$GPVTG,0.64,T,,M,73.4,N,135.9,K*6C
$GPRMC,081646.269,V,4054.959,N,07502.461,W,51.2,0.63,040416,,E*44
$GPGGA,081647.269,4054.959,N,07502.461,W,0,00,,,M,,M,,*53
$GPGLL,4054.959,N,07502.461,W,081648.269,V*3C
$GPVTG,0.63,T,,M,51.2,N,94.7,K*59
$GPRMC,081650.269,V,4054.960,N,07502.460,W,34.5,0.61,040416,,E*4E
$GPGGA,081651.269,4054.960,N,07502.460,W,0,00,,,M,,M,,*5F
$GPGLL,4054.960,N,07502.460,W,081652.269,V*3C
$GPVTG,0.61,T,,M,34.5,N,63.8,K*58
$GPRMC,081654.269,V,4054.961,N,07502.458,W,39.0,0.71,040416,,E*49
$GPGGA,081655.269,4054.961,N,07502.458,W,0,00,,,M,,M,,*51
$GPGLL,4054.961,N,07502.458,W,081656.269,V*32
$GPVTG,0.71,T,,M,39.0,N,72.3,K*5A
$GPRMC,081658.269,V,4054.962,N,07502.456,W,98.6,0.64,040416,,E*41
$GPGGA,081659.269,4054.962,N,07502.456,W,0,00,,,M,,M,,*50
$GPGLL,4054.962,N,07502.456,W,081700.269,V*3D
$GPVTG,0.64,T,,M,98.6,N,182.6,K*68
$GPRMC,081702.269,V,4054.963,N,07502.455,W,1.1,0.57,040416,,E*7A
$GPGGA,081703.269,4054.963,N,07502.455,W,0,00,,,M,,M,,*5C
$GPGLL,4054.963,N,07502.455,W,081704.269,V*3B
$GPVTG,0.57,T,,M,1.1,N,2.1,K*51
$GPRMC,081706.269,V,4054.964,N,07502.453,W,97.0,0.64,040416,,E*41
$GPGGA,081707.269,4054.964,N,07502.453,W,0,00,,,M,,M,,*59
$GPGLL,4054.964,N,07502.453,W,081708.269,V*36
$GPVTG,0.64,T,,M,97.0,N,179.6,K*65
$GPRMC,081710.269,V,4054.965,N,07502.452,W,19.8,0.59,040416,,E*46
$GPGGA,081711.269,4054.965,N,07502.452,W,0,00,,,M,,M,,*5E
$GPGLL,4054.965,N,07502.452,W,081712.269,V*3D
$GPVTG,0.59,T,,M,19.8,N,36.8,K*51
$GPRMC,081714.269,V,4054.965,N,07502.450,W,72.3,1.02,040416,,E*49
$GPGGA,081715.269,4054.965,N,07502.450,W,0,00,,,M,,M,,*58
$GPGLL,4054.965,N,07502.450,W,081716.269,V*3B
$GPVTG,1.02,T,,M,72.3,N,133.9,K*6D
$GPRMC,081718.269,V,4054.964,N,07502.448,W,88.2,1.12,040416,,E*48
$GPGGA,081719.269,4054.964,N,07502.448,W,0,00,,,M,,M,,*5C
$GPGLL,4054.964,N,07502.448,W,081720.269,V*36
$GPVTG,1.12,T,,M,88.2,N,163.3,K*67
$GPRMC,081722.269,V,4054.964,N,07502.447,W,20.1,1.04,040416,,E*48
$GPGGA,081723.269,4054.964,N,07502.447,W,0,00,,,M,,M,,*5A
$GPGLL,4054.964,N,07502.447,W,081724.269,V*3D
$GPVTG,1.04,T,,M,20.1,N,37.3,K*51
$GPRMC,081726.269,V,4054.964,N,07502.445,W,78.0,1.13,040416,,E*44
$GPGGA,081727.269,4054.964,N,07502.445,W,0,00,,,M,,M,,*5C
$GPGLL,4054.964,N,07502.445,W,081728.269,V*33
$GPVTG,1.13,T,,M,78.0,N,144.4,K*69
$GPRMC,081730.269,V,4054.963,N,07502.443,W,63.3,1.16,040416,,E*4E
$GPGGA,081731.269,4054.963,N,07502.443,W,0,00,,,M,,M,,*5A
$GPGLL,4054.963,N,07502.443,W,081732.269,V*39
$GPVTG,1.16,T,,M,63.3,N,117.2,K*65
$GPRMC,081734.269,V,4054.963,N,07502.441,W,45.0,1.24,040416,,E*4E
$GPGGA,081735.269,4054.963,N,07502.441,W,0,00,,,M,,M,,*5C
$GPGLL,4054.963,N,07502.441,W,081736.269,V*3F
$GPVTG,1.24,T,,M,45.0,N,83.3,K*5E
$GPRMC,081738.269,V,4054.962,N,07502.440,W,9.9,1.13,040416,,E*77
$GPGGA,081739.269,4054.962,N,07502.440,W,0,00,,,M,,M,,*50
$GPGLL,4054.962,N,07502.440,W,081740.269,V*3E
$GPVTG,1.13,T,,M,9.9,N,18.4,K*6E
$GPRMC,081742.269,V,4054.962,N,07502.438,W,36.8,1.02,040416,,E*48
$GPGGA,081743.269,4054.962,N,07502.438,W,0,00,,,M,,M,,*52
$GPGLL,4054.962,N,07502.438,W,081744.269,V*35
$GPVTG,1.02,T,,M,36.8,N,68.1,K*51
$GPRMC,081746.269,V,4054.962,N,07502.436,W,10.8,1.08,040416,,E*4C
$GPGGA,081747.269,4054.962,N,07502.436,W,0,00,,,M,,M,,*58
$GPGLL,4054.962,N,07502.436,W,081748.269,V*37
$GPVTG,1.08,T,,M,10.8,N,20.0,K*52
$GPRMC,081750.269,V,4054.962,N,07502.434,W,74.3,1.13,040416,,E*4A
$GPGGA,081751.269,4054.962,N,07502.434,W,0,00,,,M,,M,,*5D
$GPGLL,4054.962,N,07502.434,W,081752.269,V*3E
$GPVTG,1.13,T,,M,74.3,N,137.6,K*60
$GPRMC,081754.269,V,4054.961,N,07502.433,W,56.1,1.22,040416,,E*4A
$GPGGA,081755.269,4054.961,N,07502.433,W,0,00,,,M,,M,,*5D
$GPGLL,4054.961,N,07502.433,W,081756.269,V*3E
$GPVTG,1.22,T,,M,56.1,N,103.9,K*68
$GPRMC,081758.269,V,4054.960,N,07502.431,W,68.3,1.28,040416,,E*40
$GPGGA,081759.269,4054.960,N,07502.431,W,0,00,,,M,,M,,*52
$GPGLL,4054.960,N,07502.431,W,081800.269,V*31
$GPVTG,1.28,T,,M,68.3,N,126.6,K*65
$GPRMC,081802.269,V,4054.960,N,07502.429,W,81.5,1.01,040416,,E*43
$GPGGA,081803.269,4054.960,N,07502.429,W,0,00,,,M,,M,,*5B
$GPGLL,4054.960,N,07502.429,W,081804.269,V*3C
$GPVTG,1.01,T,,M,81.5,N,150.9,K*61
$GPRMC,081806.269,V,4054.960,N,07502.427,W,0.8,1.05,040416,,E*79
$GPGGA,081807.269,4054.960,N,07502.427,W,0,00,,,M,,M,,*51
$GPGLL,4054.960,N,07502.427,W,081808.269,V*3E
$GPVTG,1.05,T,,M,0.8,N,1.6,K*5B
$GPRMC,081810.269,V,4054.960,N,07502.426,W,47.3,1.08,040416,,E*4A
$GPGGA,081811.269,4054.960,N,07502.426,W,0,00,,,M,,M,,*57
$GPGLL,4054.960,N,07502.426,W,081812.269,V*34
$GPVTG,1.08,T,,M,47.3,N,87.6,K*50
$GPRMC,081814.269,V,4054.960,N,07502.424,W,43.6,1.03,040416,,E*46
$GPGGA,081815.269,4054.960,N,07502.424,W,0,00,,,M,,M,,*51
$GPGLL,4054.960,N,07502.424,W,081816.269,V*32
$GPVTG,1.03,T,,M,43.6,N,80.8,K*53
$GPRMC,081818.269,V,4054.960,N,07502.422,W,82.3,1.10,040416,,E*46
$GPGGA,081819.269,4054.960,N,07502.422,W,0,00,,,M,,M,,*5B
$GPGLL,4054.960,N,07502.422,W,081820.269,V*31
$GPVTG,1.10,T,,M,82.3,N,152.4,K*6B
$GPRMC,081822.269,V,4054.959,N,07502.420,W,56.1,1.14,040416,,E*48
$GPGGA,081823.269,4054.959,N,07502.420,W,0,00,,,M,,M,,*5A
$GPGLL,4054.959,N,07502.420,W,081824.269,V*3D
$GPVTG,1.14,T,,M,56.1,N,103.9,K*6D
$GPRMC,081826.269,V,4054.959,N,07502.419,W,6.2,1.19,040416,,E*7D
$GPGGA,081827.269,4054.959,N,07502.419,W,0,00,,,M,,M,,*54
$GPGLL,4054.959,N,07502.419,W,081828.269,V*3B
$GPVTG,1.19,T,,M,6.2,N,11.4,K*69
$GPRMC,081830.269,V,4054.957,N,07502.418,W,31.8,1.63,040416,,E*46
$GPGGA,081831.269,4054.957,N,07502.418,W,0,00,,,M,,M,,*5C
$GPGLL,4054.957,N,07502.418,W,081832.269,V*3F
$GPVTG,1.63,T,,M,31.8,N,58.9,K*5A
$GPRMC,081834.269,V,4054.955,N,07502.417,W,81.8,1.84,040416,,E*4D
$GPGGA,081835.269,4054.955,N,07502.417,W,0,00,,,M,,M,,*55
$GPGLL,4054.955,N,07502.417,W,081836.269,V*36
$GPVTG,1.84,T,,M,81.8,N,151.6,K*6F
$GPRMC,081838.269,V,4054.954,N,07502.417,W,18.7,1.83,040416,,E*48
$GPGGA,081839.269,4054.954,N,07502.417,W,0,00,,,M,,M,,*58
$GPGLL,4054.954,N,07502.417,W,081840.269,V*36
$GPVTG,1.83,T,,M,18.7,N,34.7,K*54
$GPRMC,081842.269,V,4054.952,N,07502.416,W,13.9,1.86,040416,,E*42
$GPGGA,081843.269,4054.952,N,07502.416,W,0,00,,,M,,M,,*52
$GPGLL,4054.952,N,07502.416,W,081844.269,V*35
$GPVTG,1.86,T,,M,13.9,N,25.8,K*5B
$GPRMC,081846.269,V,4054.950,N,07502.416,W,48.5,1.77,040416,,E*48
$GPGGA,081847.269,4054.950,N,07502.416,W,0,00,,,M,,M,,*54
$GPGLL,4054.950,N,07502.416,W,081848.269,V*3B
$GPVTG,1.77,T,,M,48.5,N,89.8,K*51
$GPRMC,081850.269,V,4054.948,N,07502.415,W,84.6,1.87,040416,,E*49
$GPGGA,081851.269,4054.948,N,07502.415,W,0,00,,,M,,M,,*59
$GPGLL,4054.948,N,07502.415,W,081852.269,V*3A
$GPVTG,1.87,T,,M,84.6,N,156.7,K*61
$GPRMC,081854.269,V,4054.947,N,07502.415,W,66.6,1.88,040416,,E*41
$GPGGA,081855.269,4054.947,N,07502.415,W,0,00,,,M,,M,,*52
$GPGLL,4054.947,N,07502.415,W,081856.269,V*31
$GPVTG,1.88,T,,M,66.6,N,123.3,K*64
$GPRMC,081858.269,V,4054.945,N,07502.415,W,55.7,1.85,040416,,E*43
$GPGGA,081859.269,4054.945,N,07502.415,W,0,00,,,M,,M,,*5C
$GPGLL,4054.945,N,07502.415,W,081900.269,V*31
$GPVTG,1.85,T,,M,55.7,N,103.2,K*6B
$GPRMC,081902.269,V,4054.943,N,07502.414,W,2.2,1.75,040416,,E*72
$GPGGA,081903.269,4054.943,N,07502.414,W,0,00,,,M,,M,,*55
$GPGLL,4054.943,N,07502.414,W,081904.269,V*32
$GPVTG,1.75,T,,M,2.2,N,4.1,K*56
$GPRMC,081906.269,V,4054.942,N,07502.413,W,70.0,1.65,040416,,E*46
$GPGGA,081907.269,4054.942,N,07502.413,W,0,00,,,M,,M,,*57
$GPGLL,4054.942,N,07502.413,W,081908.269,V*38
$GPVTG,1.65,T,,M,70.0,N,129.7,K*68
$GPRMC,081910.269,V,4054.940,N,07502.412,W,97.5,1.68,040416,,E*43
$GPGGA,081911.269,4054.940,N,07502.412,W,0,00,,,M,,M,,*53
$GPGLL,4054.940,N,07502.412,W,081912.269,V*30
$GPVTG,1.68,T,,M,97.5,N,180.5,K*68
$GPRMC,081914.269,V,4054.939,N,07502.411,W,40.2,1.62,040416,,E*4D
$GPGGA,081915.269,4054.939,N,07502.411,W,0,00,,,M,,M,,*5A
$GPGLL,4054.939,N,07502.411,W,081916.269,V*39
$GPVTG,1.62,T,,M,40.2,N,74.5,K*55
$GPRMC,081918.269,V,4054.937,N,07502.410,W,64.2,1.63,040416,,E*49
$GPGGA,081919.269,4054.937,N,07502.410,W,0,00,,,M,,M,,*59
$GPGLL,4054.937,N,07502.410,W,081920.269,V*33
$GPVTG,1.63,T,,M,64.2,N,118.9,K*65
$GPRMC,081922.269,V,4054.936,N,07502.409,W,80.4,1.67,040416,,E*41
$GPGGA,081923.269,4054.936,N,07502.409,W,0,00,,,M,,M,,*59
$GPGLL,4054.936,N,07502.409,W,081924.269,V*3E
$GPVTG,1.67,T,,M,80.4,N,148.9,K*68
$GPRMC,081926.269,V,4054.934,N,07502.408,W,71.4,1.63,040416,,E*4C
$GPGGA,081927.269,4054.934,N,07502.408,W,0,00,,,M,,M,,*5E
$GPGLL,4054.934,N,07502.408,W,081928.269,V*31
$GPVTG,1.63,T,,M,71.4,N,132.2,K*64
$GPRMC,081930.269,V,4054.933,N,07502.407,W,46.7,1.52,040416,,E*46
$GPGGA,081931.269,4054.933,N,07502.407,W,0,00,,,M,,M,,*51
$GPGLL,4054.933,N,07502.407,W,081932.269,V*32
$GPVTG,1.52,T,,M,46.7,N,86.4,K*59
$GPRMC,081934.269,V,4054.931,N,07502.406,W,52.4,1.60,040416,,E*46
$GPGGA,081935.269,4054.931,N,07502.406,W,0,00,,,M,,M,,*56
$GPGLL,4054.931,N,07502.406,W,081936.269,V*35
$GPVTG,1.60,T,,M,52.4,N,97.0,K*5A
$GPRMC,081938.269,V,4054.930,N,07502.405,W,15.0,1.52,040416,,E*4E
$GPGGA,081939.269,4054.930,N,07502.405,W,0,00,,,M,,M,,*58
$GPGLL,4054.930,N,07502.405,W,081940.269,V*36
$GPVTG,1.52,T,,M,15.0,N,27.7,K*50
$GPRMC,081942.269,V,4054.929,N,07502.403,W,4.4,1.48,040416,,E*72
$GPGGA,081943.269,4054.929,N,07502.403,W,0,00,,,M,,M,,*5B
$GPGLL,4054.929,N,07502.403,W,081944.269,V*3C
$GPVTG,1.48,T,,M,4.4,N,8.1,K*54
$GPRMC,081946.269,V,4054.928,N,07502.402,W,8.1,1.41,040416,,E*76
$GPGGA,081947.269,4054.928,N,07502.402,W,0,00,,,M,,M,,*5F
$GPGLL,4054.928,N,07502.402,W,081948.269,V*30
$GPVTG,1.41,T,,M,8.1,N,15.0,K*69
$GPRMC,081950.269,V,4054.927,N,07502.400,W,21.1,1.42,040416,,E*44
$GPGGA,081951.269,4054.927,N,07502.400,W,0,00,,,M,,M,,*55
$GPGLL,4054.927,N,07502.400,W,081952.269,V*36
$GPVTG,1.42,T,,M,21.1,N,39.0,K*5F
$GPRMC,081954.269,V,4054.925,N,07502.399,W,5.8,1.51,040416,,E*78
$GPGGA,081955.269,4054.925,N,07502.399,W,0,00,,,M,,M,,*54
$GPGLL,4054.925,N,07502.399,W,081956.269,V*37
$GPVTG,1.51,T,,M,5.8,N,10.7,K*6E
$GPRMC,081958.269,V,4054.924,N,07502.398,W,78.4,1.48,040416,,E*4A
$GPGGA,081959.269,4054.924,N,07502.398,W,0,00,,,M,,M,,*58
$GPGLL,4054.924,N,07502.398,W,082000.269,V*3E
$GPVTG,1.48,T,,M,78.4,N,145.2,K*64
$GPRMC,082002.269,V,4054.923,N,07502.397,W,89.7,1.50,040416,,E*43
$GPGGA,082003.269,4054.923,N,07502.397,W,0,00,,,M,,M,,*55
$GPGLL,4054.923,N,07502.397,W,082004.269,V*32
$GPVTG,1.50,T,,M,89.7,N,166.1,K*62
$GPRMC,082006.269,V,4054.921,N,07502.396,W,2.5,1.57,040416,,E*72
$GPGGA,082007.269,4054.921,N,07502.396,W,0,00,,,M,,M,,*52
$GPGLL,4054.921,N,07502.396,W,082008.269,V*3D
$GPVTG,1.57,T,,M,2.5,N,4.7,K*57
$GPRMC,082010.269,V,4054.920,N,07502.394,W,47.4,1.48,040416,,E*48
$GPGGA,082011.269,4054.920,N,07502.394,W,0,00,,,M,,M,,*56
$GPGLL,4054.920,N,07502.394,W,082012.269,V*35
$GPVTG,1.48,T,,M,47.4,N,87.8,K*5D
$GPRMC,082014.269,V,4054.919,N,07502.393,W,27.1,1.28,040416,,E*44
$GPGGA,082015.269,4054.919,N,07502.393,W,0,00,,,M,,M,,*5F
$GPGLL,4054.919,N,07502.393,W,082016.269,V*3C
$GPVTG,1.28,T,,M,27.1,N,50.2,K*58
$GPRMC,082018.269,V,4054.919,N,07502.391,W,55.5,1.28,040416,,E*4B
$GPGGA,082019.269,4054.919,N,07502.391,W,0,00,,,M,,M,,*51
$GPGLL,4054.919,N,07502.391,W,082020.269,V*3B
$GPVTG,1.28,T,,M,55.5,N,102.8,K*65
$GPRMC,082022.269,V,4054.918,N,07502.389,W,4.4,1.29,040416,,E*7E
$GPGGA,082023.269,4054.918,N,07502.389,W,0,00,,,M,,M,,*50
$GPGLL,4054.918,N,07502.389,W,082024.269,V*37
$GPVTG,1.29,T,,M,4.4,N,8.1,K*53
$GPRMC,082026.269,V,4054.917,N,07502.388,W,82.3,1.29,040416,,E*4D
$GPGGA,082027.269,4054.917,N,07502.388,W,0,00,,,M,,M,,*5A
$GPGLL,4054.917,N,07502.388,W,082028.269,V*35
$GPVTG,1.29,T,,M,82.3,N,152.4,K*61
$GPRMC,082030.269,V,4054.916,N,07502.386,W,5.9,1.28,040416,,E*71
$GPGGA,082031.269,4054.916,N,07502.386,W,0,00,,,M,,M,,*52
$GPGLL,4054.916,N,07502.386,W,082032.269,V*31
$GPVTG,1.28,T,,M,5.9,N,11.0,K*67
$GPRMC,082034.269,V,4054.915,N,07502.384,W,31.4,1.31,040416,,E*46
$GPGGA,082035.269,4054.915,N,07502.384,W,0,00,,,M,,M,,*57
$GPGLL,4054.915,N,07502.384,W,082036.269,V*34
$GPVTG,1.31,T,,M,31.4,N,58.2,K*5A
$GPRMC,082038.269,V,4054.915,N,07502.383,W,61.1,1.27,040416,,E*4A
$GPGGA,082039.269,4054.915,N,07502.383,W,0,00,,,M,,M,,*5C
$GPGLL,4054.915,N,07502.383,W,082040.269,V*32
$GPVTG,1.27,T,,M,61.1,N,113.1,K*60
$GPRMC,082042.269,V,4054.914,N,07502.381,W,38.8,1.33,040416,,E*44
$GPGGA,082043.269,4054.914,N,07502.381,W,0,00,,,M,,M,,*52
$GPGLL,4054.914,N,07502.381,W,082044.269,V*35
$GPVTG,1.33,T,,M,38.8,N,71.9,K*5D
$GPRMC,082046.269,V,4054.912,N,07502.381,W,88.1,1.82,040416,,E*4E
$GPGGA,082047.269,4054.912,N,07502.381,W,0,00,,,M,,M,,*50
$GPGLL,4054.912,N,07502.381,W,082048.269,V*3F
$GPVTG,1.82,T,,M,88.1,N,163.1,K*6F
$GPRMC,082050.269,V,4054.910,N,07502.380,W,74.0,1.76,040416,,E*43
$GPGGA,082051.269,4054.910,N,07502.380,W,0,00,,,M,,M,,*54
$GPGLL,4054.910,N,07502.380,W,082052.269,V*37
$GPVTG,1.76,T,,M,74.0,N,137.0,K*66
$GPRMC,082054.269,V,4054.909,N,07502.379,W,55.7,1.75,040416,,E*4E
$GPGGA,082055.269,4054.909,N,07502.379,W,0,00,,,M,,M,,*5E
$GPGLL,4054.909,N,07502.379,W,082056.269,V*3D
$GPVTG,1.75,T,,M,55.7,N,103.2,K*64
$GPRMC,082058.269,V,4054.907,N,07502.379,W,8.4,1.75,040416,,E*77
$GPGGA,082059.269,4054.907,N,07502.379,W,0,00,,,M,,M,,*5C
$GPGLL,4054.907,N,07502.379,W,082100.269,V*31
$GPVTG,1.75,T,,M,8.4,N,15.6,K*6D
$GPRMC,082102.269,V,4054.906,N,07502.378,W,11.7,1.69,040416,,E*4F
$GPGGA,082103.269,4054.906,N,07502.378,W,0,00,,,M,,M,,*52
$GPGLL,4054.906,N,07502.378,W,082104.269,V*35
$GPVTG,1.69,T,,M,11.7,N,21.7,K*5D
$GPRMC,082106.269,V,4054.904,N,07502.377,W,31.1,1.79,040416,,E*43
$GPGGA,082107.269,4054.904,N,07502.377,W,0,00,,,M,,M,,*5B
$GPGLL,4054.904,N,07502.377,W,082108.269,V*34
$GPVTG,1.79,T,,M,31.1,N,57.6,K*58
$GPRMC,082110.269,V,4054.902,N,07502.377,W,64.7,1.77,040416,,E*4A
$GPGGA,082111.269,4054.902,N,07502.377,W,0,00,,,M,,M,,*5A
$GPGLL,4054.902,N,07502.377,W,082112.269,V*39
$GPVTG,1.77,T,,M,64.7,N,119.8,K*65
$GPRMC,082114.269,V,4054.900,N,07502.376,W,79.4,1.80,040416,,E*4A
$GPGGA,082115.269,4054.900,N,07502.376,W,0,00,,,M,,M,,*5D
$GPGLL,4054.900,N,07502.376,W,082116.269,V*3E
$GPVTG,1.80,T,,M,79.4,N,147.0,K*61
$GPRMC,082118.269,V,4054.899,N,07502.376,W,63.8,1.82,040416,,E*42
$GPGGA,082119.269,4054.899,N,07502.376,W,0,00,,,M,,M,,*50
$GPGLL,4054.899,N,07502.376,W,082120.269,V*3A
$GPVTG,1.82,T,,M,63.8,N,118.2,K*6C
$GPRMC,082122.269,V,4054.897,N,07502.375,W,64.6,1.89,040416,,E*44
$GPGGA,082123.269,4054.897,N,07502.375,W,0,00,,,M,,M,,*54
$GPGLL,4054.897,N,07502.375,W,082124.269,V*33
$GPVTG,1.89,T,,M,64.6,N,119.7,K*6A
$GPRMC,082126.269,V,4054.895,N,07502.375,W,61.2,1.97,040416,,E*4C
$GPGGA,082127.269,4054.895,N,07502.375,W,0,00,,,M,,M,,*52
$GPGLL,4054.895,N,07502.375,W,082128.269,V*3D
$GPVTG,1.97,T,,M,61.2,N,113.4,K*6D
$GPRMC,082130.269,V,4054.893,N,07502.375,W,54.6,1.94,040416,,E*4C
$GPGGA,082131.269,4054.893,N,07502.375,W,0,00,,,M,,M,,*53
$GPGLL,4054.893,N,07502.375,W,082132.269,V*30
$GPVTG,1.94,T,,M,54.6,N,101.1,K*6A
$GPRMC,082134.269,V,4054.892,N,07502.375,W,27.4,1.96,040416,,E*4D
$GPGGA,082135.269,4054.892,N,07502.375,W,0,00,,,M,,M,,*56
$GPGLL,4054.892,N,07502.375,W,082136.269,V*35
$GPVTG,1.96,T,,M,27.4,N,50.8,K*52$GPRMC,081458.269,V,4054.930,N,07502.495,W,84.4,0.99,040416,,E*46
$GPGGA,081459.269,4054.930,N,07502.495,W,0,00,,,M,,M,,*5A
$GPGLL,4054.930,N,07502.495,W,081500.269,V*37
$GPVTG,0.99,T,,M,84.4,N,156.2,K*68
$GPRMC,081502.269,V,4054.930,N,07502.494,W,28.5,1.07,040416,,E*48
$GPGGA,081503.269,4054.930,N,07502.494,W,0,00,,,M,,M,,*55
$GPGLL,4054.930,N,07502.494,W,081504.269,V*32
$GPVTG,1.07,T,,M,28.5,N,52.9,K*57
$GPRMC,081506.269,V,4054.930,N,07502.492,W,15.0,0.99,040416,,E*47
$GPGGA,081507.269,4054.930,N,07502.492,W,0,00,,,M,,M,,*57
$GPGLL,4054.930,N,07502.492,W,081508.269,V*38
$GPVTG,0.99,T,,M,15.0,N,27.9,K*58
$GPRMC,081510.269,V,4054.930,N,07502.490,W,94.4,0.88,040416,,E*4F
$GPGGA,081511.269,4054.930,N,07502.490,W,0,00,,,M,,M,,*52
$GPGLL,4054.930,N,07502.490,W,081512.269,V*31
$GPVTG,0.88,T,,M,94.4,N,174.9,K*62
$GPRMC,081514.269,V,4054.930,N,07502.488,W,67.6,0.89,040416,,E*4D
$GPGGA,081515.269,4054.930,N,07502.488,W,0,00,,,M,,M,,*5F
$GPGLL,4054.930,N,07502.488,W,081516.269,V*3C
$GPVTG,0.89,T,,M,67.6,N,125.3,K*63
$GPRMC,081518.269,V,4054.930,N,07502.487,W,85.3,0.95,040416,,E*4A
$GPGGA,081519.269,4054.930,N,07502.487,W,0,00,,,M,,M,,*5C
$GPGLL,4054.930,N,07502.487,W,081520.269,V*36
$GPVTG,0.95,T,,M,85.3,N,158.0,K*6E
$GPRMC,081522.269,V,4054.930,N,07502.485,W,3.3,0.96,040416,,E*7C
$GPGGA,081523.269,4054.930,N,07502.485,W,0,00,,,M,,M,,*57
$GPGLL,4054.930,N,07502.485,W,081524.269,V*30
$GPVTG,0.96,T,,M,3.3,N,6.1,K*58
$GPRMC,081526.269,V,4054.931,N,07502.483,W,91.2,0.63,040416,,E*4F
$GPGGA,081527.269,4054.931,N,07502.483,W,0,00,,,M,,M,,*54
$GPGLL,4054.931,N,07502.483,W,081528.269,V*3B
$GPVTG,0.63,T,,M,91.2,N,168.9,K*69
$GPRMC,081530.269,V,4054.932,N,07502.482,W,83.1,0.62,040416,,E*4B
$GPGGA,081531.269,4054.932,N,07502.482,W,0,00,,,M,,M,,*51
$GPGLL,4054.932,N,07502.482,W,081532.269,V*32
$GPVTG,0.62,T,,M,83.1,N,153.8,K*61
$GPRMC,081534.269,V,4054.933,N,07502.480,W,82.4,0.66,040416,,E*4C
$GPGGA,081535.269,4054.933,N,07502.480,W,0,00,,,M,,M,,*56
$GPGLL,4054.933,N,07502.480,W,081536.269,V*35
$GPVTG,0.66,T,,M,82.4,N,152.6,K*6E
$GPRMC,081538.269,V,4054.934,N,07502.479,W,99.7,0.62,040416,,E*4C
$GPGGA,081539.269,4054.934,N,07502.479,W,0,00,,,M,,M,,*5B
$GPGLL,4054.934,N,07502.479,W,081540.269,V*35
$GPVTG,0.62,T,,M,99.7,N,184.6,K*68
$GPRMC,081542.269,V,4054.936,N,07502.478,W,84.1,0.36,040416,,E*49
$GPGGA,081543.269,4054.936,N,07502.478,W,0,00,,,M,,M,,*55
$GPGLL,4054.936,N,07502.478,W,081544.269,V*32
$GPVTG,0.36,T,,M,84.1,N,155.8,K*61
$GPRMC,081546.269,V,4054.938,N,07502.477,W,8.4,0.26,040416,,E*7C
$GPGGA,081547.269,4054.938,N,07502.477,W,0,00,,,M,,M,,*50
$GPGLL,4054.938,N,07502.477,W,081548.269,V*3F
$GPVTG,0.26,T,,M,8.4,N,15.6,K*6A
$GPRMC,081550.269,V,4054.939,N,07502.476,W,16.0,0.30,040416,,E*47
$GPGGA,081551.269,4054.939,N,07502.476,W,0,00,,,M,,M,,*57
$GPGLL,4054.939,N,07502.476,W,081552.269,V*34
$GPVTG,0.30,T,,M,16.0,N,29.7,K*58
$GPRMC,081554.269,V,4054.941,N,07502.475,W,37.3,0.29,040416,,E*47
$GPGGA,081555.269,4054.941,N,07502.475,W,0,00,,,M,,M,,*5F
$GPGLL,4054.941,N,07502.475,W,081556.269,V*3C
$GPVTG,0.29,T,,M,37.3,N,69.0,K*53
$GPRMC,081558.269,V,4054.942,N,07502.475,W,83.7,0.31,040416,,E*4A
$GPGGA,081559.269,4054.942,N,07502.475,W,0,00,,,M,,M,,*50
$GPGLL,4054.942,N,07502.475,W,081600.269,V*3F
$GPVTG,0.31,T,,M,83.7,N,155.1,K*6E
$GPRMC,081602.269,V,4054.944,N,07502.474,W,89.6,0.27,040416,,E*4D
$GPGGA,081603.269,4054.944,N,07502.474,W,0,00,,,M,,M,,*5B
$GPGLL,4054.944,N,07502.474,W,081604.269,V*3C
$GPVTG,0.27,T,,M,89.6,N,165.9,K*69
$GPRMC,081606.269,V,4054.946,N,07502.473,W,19.5,0.31,040416,,E*41
$GPGGA,081607.269,4054.946,N,07502.473,W,0,00,,,M,,M,,*5A
$GPGLL,4054.946,N,07502.473,W,081608.269,V*35
$GPVTG,0.31,T,,M,19.5,N,36.2,K*58
$GPRMC,081610.269,V,4054.947,N,07502.472,W,95.6,0.33,040416,,E*43
$GPGGA,081611.269,4054.947,N,07502.472,W,0,00,,,M,,M,,*5D
$GPGLL,4054.947,N,07502.472,W,081612.269,V*3E
$GPVTG,0.33,T,,M,95.6,N,177.1,K*6A
$GPRMC,081614.269,V,4054.949,N,07502.471,W,44.7,0.43,040416,,E*40
$GPGGA,081615.269,4054.949,N,07502.471,W,0,00,,,M,,M,,*54
$GPGLL,4054.949,N,07502.471,W,081616.269,V*37
$GPVTG,0.43,T,,M,44.7,N,82.7,K*5D
$GPRMC,081618.269,V,4054.950,N,07502.470,W,58.2,0.41,040416,,E*4F
$GPGGA,081619.269,4054.950,N,07502.470,W,0,00,,,M,,M,,*51
$GPGLL,4054.950,N,07502.470,W,081620.269,V*3B
$GPVTG,0.41,T,,M,58.2,N,107.8,K*64
$GPRMC,081622.269,V,4054.951,N,07502.469,W,5.5,0.46,040416,,E*77
$GPGGA,081623.269,4054.951,N,07502.469,W,0,00,,,M,,M,,*51
$GPGLL,4054.951,N,07502.469,W,081624.269,V*36
$GPVTG,0.46,T,,M,5.5,N,10.2,K*61
$GPRMC,081626.269,V,4054.953,N,07502.468,W,15.7,0.38,040416,,E*4A
$GPGGA,081627.269,4054.953,N,07502.468,W,0,00,,,M,,M,,*56
$GPGLL,4054.953,N,07502.468,W,081628.269,V*39
$GPVTG,0.38,T,,M,15.7,N,29.1,K*52
$GPRMC,081630.269,V,4054.954,N,07502.467,W,18.5,0.38,040416,,E*4A
$GPGGA,081631.269,4054.954,N,07502.467,W,0,00,,,M,,M,,*59
$GPGLL,4054.954,N,07502.467,W,081632.269,V*3A
$GPVTG,0.38,T,,M,18.5,N,34.3,K*53
$GPRMC,081634.269,V,4054.956,N,07502.465,W,67.2,0.49,040416,,E*47
$GPGGA,081635.269,4054.956,N,07502.465,W,0,00,,,M,,M,,*5D
$GPGLL,4054.956,N,07502.465,W,081636.269,V*3E
$GPVTG,0.49,T,,M,67.2,N,124.4,K*6D
$GPRMC,081638.269,V,4054.957,N,07502.464,W,25.7,0.55,040416,,E*45
$GPGGA,081639.269,4054.957,N,07502.464,W,0,00,,,M,,M,,*51
$GPGLL,4054.957,N,07502.464,W,081640.269,V*3F
$GPVTG,0.55,T,,M,25.7,N,47.6,K*55
$GPRMC,081642.269,V,4054.958,N,07502.463,W,73.4,0.64,040416,,E*42
$GPGGA,081643.269,4054.958,N,07502.463,W,0,00,,,M,,M,,*54
$GPGLL,4054.958,N,07502.463,W,081644.269,V*33
$GPVTG,0.64,T,,M,73.4,N,135.9,K*6C
$GPRMC,081646.269,V,4054.959,N,07502.461,W,51.2,0.63,040416,,E*44
$GPGGA,081647.269,4054.959,N,07502.461,W,0,00,,,M,,M,,*53
$GPGLL,4054.959,N,07502.461,W,081648.269,V*3C
$GPVTG,0.63,T,,M,51.2,N,94.7,K*59
$GPRMC,081650.269,V,4054.960,N,07502.460,W,34.5,0.61,040416,,E*4E
$GPGGA,081651.269,4054.960,N,07502.460,W,0,00,,,M,,M,,*5F
$GPGLL,4054.960,N,07502.460,W,081652.269,V*3C
$GPVTG,0.61,T,,M,34.5,N,63.8,K*58
$GPRMC,081654.269,V,4054.961,N,07502.458,W,39.0,0.71,040416,,E*49
$GPGGA,081655.269,4054.961,N,07502.458,W,0,00,,,M,,M,,*51
$GPGLL,4054.961,N,07502.458,W,081656.269,V*32
$GPVTG,0.71,T,,M,39.0,N,72.3,K*5A
$GPRMC,081658.269,V,4054.962,N,07502.456,W,98.6,0.64,040416,,E*41
$GPGGA,081659.269,4054.962,N,07502.456,W,0,00,,,M,,M,,*50
$GPGLL,4054.962,N,07502.456,W,081700.269,V*3D
$GPVTG,0.64,T,,M,98.6,N,182.6,K*68
$GPRMC,081702.269,V,4054.963,N,07502.455,W,1.1,0.57,040416,,E*7A
$GPGGA,081703.269,4054.963,N,07502.455,W,0,00,,,M,,M,,*5C
$GPGLL,4054.963,N,07502.455,W,081704.269,V*3B
$GPVTG,0.57,T,,M,1.1,N,2.1,K*51
$GPRMC,081706.269,V,4054.964,N,07502.453,W,97.0,0.64,040416,,E*41
$GPGGA,081707.269,4054.964,N,07502.453,W,0,00,,,M,,M,,*59
$GPGLL,4054.964,N,07502.453,W,081708.269,V*36
$GPVTG,0.64,T,,M,97.0,N,179.6,K*65
$GPRMC,081710.269,V,4054.965,N,07502.452,W,19.8,0.59,040416,,E*46
$GPGGA,081711.269,4054.965,N,07502.452,W,0,00,,,M,,M,,*5E
$GPGLL,4054.965,N,07502.452,W,081712.269,V*3D
$GPVTG,0.59,T,,M,19.8,N,36.8,K*51
$GPRMC,081714.269,V,4054.965,N,07502.450,W,72.3,1.02,040416,,E*49
$GPGGA,081715.269,4054.965,N,07502.450,W,0,00,,,M,,M,,*58
$GPGLL,4054.965,N,07502.450,W,081716.269,V*3B
$GPVTG,1.02,T,,M,72.3,N,133.9,K*6D
$GPRMC,081718.269,V,4054.964,N,07502.448,W,88.2,1.12,040416,,E*48
$GPGGA,081719.269,4054.964,N,07502.448,W,0,00,,,M,,M,,*5C
$GPGLL,4054.964,N,07502.448,W,081720.269,V*36
$GPVTG,1.12,T,,M,88.2,N,163.3,K*67
$GPRMC,081722.269,V,4054.964,N,07502.447,W,20.1,1.04,040416,,E*48
$GPGGA,081723.269,4054.964,N,07502.447,W,0,00,,,M,,M,,*5A
$GPGLL,4054.964,N,07502.447,W,081724.269,V*3D
$GPVTG,1.04,T,,M,20.1,N,37.3,K*51
$GPRMC,081726.269,V,4054.964,N,07502.445,W,78.0,1.13,040416,,E*44
$GPGGA,081727.269,4054.964,N,07502.445,W,0,00,,,M,,M,,*5C
$GPGLL,4054.964,N,07502.445,W,081728.269,V*33
$GPVTG,1.13,T,,M,78.0,N,144.4,K*69
$GPRMC,081730.269,V,4054.963,N,07502.443,W,63.3,1.16,040416,,E*4E
$GPGGA,081731.269,4054.963,N,07502.443,W,0,00,,,M,,M,,*5A
$GPGLL,4054.963,N,07502.443,W,081732.269,V*39
$GPVTG,1.16,T,,M,63.3,N,117.2,K*65
$GPRMC,081734.269,V,4054.963,N,07502.441,W,45.0,1.24,040416,,E*4E
$GPGGA,081735.269,4054.963,N,07502.441,W,0,00,,,M,,M,,*5C
$GPGLL,4054.963,N,07502.441,W,081736.269,V*3F
$GPVTG,1.24,T,,M,45.0,N,83.3,K*5E
$GPRMC,081738.269,V,4054.962,N,07502.440,W,9.9,1.13,040416,,E*77
$GPGGA,081739.269,4054.962,N,07502.440,W,0,00,,,M,,M,,*50
$GPGLL,4054.962,N,07502.440,W,081740.269,V*3E
$GPVTG,1.13,T,,M,9.9,N,18.4,K*6E
$GPRMC,081742.269,V,4054.962,N,07502.438,W,36.8,1.02,040416,,E*48
$GPGGA,081743.269,4054.962,N,07502.438,W,0,00,,,M,,M,,*52
$GPGLL,4054.962,N,07502.438,W,081744.269,V*35
$GPVTG,1.02,T,,M,36.8,N,68.1,K*51
$GPRMC,081746.269,V,4054.962,N,07502.436,W,10.8,1.08,040416,,E*4C
$GPGGA,081747.269,4054.962,N,07502.436,W,0,00,,,M,,M,,*58
$GPGLL,4054.962,N,07502.436,W,081748.269,V*37
$GPVTG,1.08,T,,M,10.8,N,20.0,K*52
$GPRMC,081750.269,V,4054.962,N,07502.434,W,74.3,1.13,040416,,E*4A
$GPGGA,081751.269,4054.962,N,07502.434,W,0,00,,,M,,M,,*5D
$GPGLL,4054.962,N,07502.434,W,081752.269,V*3E
$GPVTG,1.13,T,,M,74.3,N,137.6,K*60
$GPRMC,081754.269,V,4054.961,N,07502.433,W,56.1,1.22,040416,,E*4A
$GPGGA,081755.269,4054.961,N,07502.433,W,0,00,,,M,,M,,*5D
$GPGLL,4054.961,N,07502.433,W,081756.269,V*3E
$GPVTG,1.22,T,,M,56.1,N,103.9,K*68
$GPRMC,081758.269,V,4054.960,N,07502.431,W,68.3,1.28,040416,,E*40
$GPGGA,081759.269,4054.960,N,07502.431,W,0,00,,,M,,M,,*52
$GPGLL,4054.960,N,07502.431,W,081800.269,V*31
$GPVTG,1.28,T,,M,68.3,N,126.6,K*65
$GPRMC,081802.269,V,4054.960,N,07502.429,W,81.5,1.01,040416,,E*43
$GPGGA,081803.269,4054.960,N,07502.429,W,0,00,,,M,,M,,*5B
$GPGLL,4054.960,N,07502.429,W,081804.269,V*3C
$GPVTG,1.01,T,,M,81.5,N,150.9,K*61
$GPRMC,081806.269,V,4054.960,N,07502.427,W,0.8,1.05,040416,,E*79
$GPGGA,081807.269,4054.960,N,07502.427,W,0,00,,,M,,M,,*51
$GPGLL,4054.960,N,07502.427,W,081808.269,V*3E
$GPVTG,1.05,T,,M,0.8,N,1.6,K*5B
$GPRMC,081810.269,V,4054.960,N,07502.426,W,47.3,1.08,040416,,E*4A
$GPGGA,081811.269,4054.960,N,07502.426,W,0,00,,,M,,M,,*57
$GPGLL,4054.960,N,07502.426,W,081812.269,V*34
$GPVTG,1.08,T,,M,47.3,N,87.6,K*50
$GPRMC,081814.269,V,4054.960,N,07502.424,W,43.6,1.03,040416,,E*46
$GPGGA,081815.269,4054.960,N,07502.424,W,0,00,,,M,,M,,*51
$GPGLL,4054.960,N,07502.424,W,081816.269,V*32
$GPVTG,1.03,T,,M,43.6,N,80.8,K*53
$GPRMC,081818.269,V,4054.960,N,07502.422,W,82.3,1.10,040416,,E*46
$GPGGA,081819.269,4054.960,N,07502.422,W,0,00,,,M,,M,,*5B
$GPGLL,4054.960,N,07502.422,W,081820.269,V*31
$GPVTG,1.10,T,,M,82.3,N,152.4,K*6B
$GPRMC,081822.269,V,4054.959,N,07502.420,W,56.1,1.14,040416,,E*48
$GPGGA,081823.269,4054.959,N,07502.420,W,0,00,,,M,,M,,*5A
$GPGLL,4054.959,N,07502.420,W,081824.269,V*3D
$GPVTG,1.14,T,,M,56.1,N,103.9,K*6D
$GPRMC,081826.269,V,4054.959,N,07502.419,W,6.2,1.19,040416,,E*7D
$GPGGA,081827.269,4054.959,N,07502.419,W,0,00,,,M,,M,,*54
$GPGLL,4054.959,N,07502.419,W,081828.269,V*3B
$GPVTG,1.19,T,,M,6.2,N,11.4,K*69
$GPRMC,081830.269,V,4054.957,N,07502.418,W,31.8,1.63,040416,,E*46
$GPGGA,081831.269,4054.957,N,07502.418,W,0,00,,,M,,M,,*5C
$GPGLL,4054.957,N,07502.418,W,081832.269,V*3F
$GPVTG,1.63,T,,M,31.8,N,58.9,K*5A
$GPRMC,081834.269,V,4054.955,N,07502.417,W,81.8,1.84,040416,,E*4D
$GPGGA,081835.269,4054.955,N,07502.417,W,0,00,,,M,,M,,*55
$GPGLL,4054.955,N,07502.417,W,081836.269,V*36
$GPVTG,1.84,T,,M,81.8,N,151.6,K*6F
$GPRMC,081838.269,V,4054.954,N,07502.417,W,18.7,1.83,040416,,E*48
$GPGGA,081839.269,4054.954,N,07502.417,W,0,00,,,M,,M,,*58
$GPGLL,4054.954,N,07502.417,W,081840.269,V*36
$GPVTG,1.83,T,,M,18.7,N,34.7,K*54
$GPRMC,081842.269,V,4054.952,N,07502.416,W,13.9,1.86,040416,,E*42
$GPGGA,081843.269,4054.952,N,07502.416,W,0,00,,,M,,M,,*52
$GPGLL,4054.952,N,07502.416,W,081844.269,V*35
$GPVTG,1.86,T,,M,13.9,N,25.8,K*5B
$GPRMC,081846.269,V,4054.950,N,07502.416,W,48.5,1.77,040416,,E*48
$GPGGA,081847.269,4054.950,N,07502.416,W,0,00,,,M,,M,,*54
$GPGLL,4054.950,N,07502.416,W,081848.269,V*3B
$GPVTG,1.77,T,,M,48.5,N,89.8,K*51
$GPRMC,081850.269,V,4054.948,N,07502.415,W,84.6,1.87,040416,,E*49
$GPGGA,081851.269,4054.948,N,07502.415,W,0,00,,,M,,M,,*59
$GPGLL,4054.948,N,07502.415,W,081852.269,V*3A
$GPVTG,1.87,T,,M,84.6,N,156.7,K*61
$GPRMC,081854.269,V,4054.947,N,07502.415,W,66.6,1.88,040416,,E*41
$GPGGA,081855.269,4054.947,N,07502.415,W,0,00,,,M,,M,,*52
$GPGLL,4054.947,N,07502.415,W,081856.269,V*31
$GPVTG,1.88,T,,M,66.6,N,123.3,K*64
$GPRMC,081858.269,V,4054.945,N,07502.415,W,55.7,1.85,040416,,E*43
$GPGGA,081859.269,4054.945,N,07502.415,W,0,00,,,M,,M,,*5C
$GPGLL,4054.945,N,07502.415,W,081900.269,V*31
$GPVTG,1.85,T,,M,55.7,N,103.2,K*6B
$GPRMC,081902.269,V,4054.943,N,07502.414,W,2.2,1.75,040416,,E*72
$GPGGA,081903.269,4054.943,N,07502.414,W,0,00,,,M,,M,,*55
$GPGLL,4054.943,N,07502.414,W,081904.269,V*32
$GPVTG,1.75,T,,M,2.2,N,4.1,K*56
$GPRMC,081906.269,V,4054.942,N,07502.413,W,70.0,1.65,040416,,E*46
$GPGGA,081907.269,4054.942,N,07502.413,W,0,00,,,M,,M,,*57
$GPGLL,4054.942,N,07502.413,W,081908.269,V*38
$GPVTG,1.65,T,,M,70.0,N,129.7,K*68
$GPRMC,081910.269,V,4054.940,N,07502.412,W,97.5,1.68,040416,,E*43
$GPGGA,081911.269,4054.940,N,07502.412,W,0,00,,,M,,M,,*53
$GPGLL,4054.940,N,07502.412,W,081912.269,V*30
$GPVTG,1.68,T,,M,97.5,N,180.5,K*68
$GPRMC,081914.269,V,4054.939,N,07502.411,W,40.2,1.62,040416,,E*4D
$GPGGA,081915.269,4054.939,N,07502.411,W,0,00,,,M,,M,,*5A
$GPGLL,4054.939,N,07502.411,W,081916.269,V*39
$GPVTG,1.62,T,,M,40.2,N,74.5,K*55
$GPRMC,081918.269,V,4054.937,N,07502.410,W,64.2,1.63,040416,,E*49
$GPGGA,081919.269,4054.937,N,07502.410,W,0,00,,,M,,M,,*59
$GPGLL,4054.937,N,07502.410,W,081920.269,V*33
$GPVTG,1.63,T,,M,64.2,N,118.9,K*65
$GPRMC,081922.269,V,4054.936,N,07502.409,W,80.4,1.67,040416,,E*41
$GPGGA,081923.269,4054.936,N,07502.409,W,0,00,,,M,,M,,*59
$GPGLL,4054.936,N,07502.409,W,081924.269,V*3E
$GPVTG,1.67,T,,M,80.4,N,148.9,K*68
$GPRMC,081926.269,V,4054.934,N,07502.408,W,71.4,1.63,040416,,E*4C
$GPGGA,081927.269,4054.934,N,07502.408,W,0,00,,,M,,M,,*5E
$GPGLL,4054.934,N,07502.408,W,081928.269,V*31
$GPVTG,1.63,T,,M,71.4,N,132.2,K*64
$GPRMC,081930.269,V,4054.933,N,07502.407,W,46.7,1.52,040416,,E*46
$GPGGA,081931.269,4054.933,N,07502.407,W,0,00,,,M,,M,,*51
$GPGLL,4054.933,N,07502.407,W,081932.269,V*32
$GPVTG,1.52,T,,M,46.7,N,86.4,K*59
$GPRMC,081934.269,V,4054.931,N,07502.406,W,52.4,1.60,040416,,E*46
$GPGGA,081935.269,4054.931,N,07502.406,W,0,00,,,M,,M,,*56
$GPGLL,4054.931,N,07502.406,W,081936.269,V*35
$GPVTG,1.60,T,,M,52.4,N,97.0,K*5A
$GPRMC,081938.269,V,4054.930,N,07502.405,W,15.0,1.52,040416,,E*4E
$GPGGA,081939.269,4054.930,N,07502.405,W,0,00,,,M,,M,,*58
$GPGLL,4054.930,N,07502.405,W,081940.269,V*36
$GPVTG,1.52,T,,M,15.0,N,27.7,K*50
$GPRMC,081942.269,V,4054.929,N,07502.403,W,4.4,1.48,040416,,E*72
$GPGGA,081943.269,4054.929,N,07502.403,W,0,00,,,M,,M,,*5B
$GPGLL,4054.929,N,07502.403,W,081944.269,V*3C
$GPVTG,1.48,T,,M,4.4,N,8.1,K*54
$GPRMC,081946.269,V,4054.928,N,07502.402,W,8.1,1.41,040416,,E*76
$GPGGA,081947.269,4054.928,N,07502.402,W,0,00,,,M,,M,,*5F
$GPGLL,4054.928,N,07502.402,W,081948.269,V*30
$GPVTG,1.41,T,,M,8.1,N,15.0,K*69
$GPRMC,081950.269,V,4054.927,N,07502.400,W,21.1,1.42,040416,,E*44
$GPGGA,081951.269,4054.927,N,07502.400,W,0,00,,,M,,M,,*55
$GPGLL,4054.927,N,07502.400,W,081952.269,V*36
$GPVTG,1.42,T,,M,21.1,N,39.0,K*5F
$GPRMC,081954.269,V,4054.925,N,07502.399,W,5.8,1.51,040416,,E*78
$GPGGA,081955.269,4054.925,N,07502.399,W,0,00,,,M,,M,,*54
$GPGLL,4054.925,N,07502.399,W,081956.269,V*37
$GPVTG,1.51,T,,M,5.8,N,10.7,K*6E
$GPRMC,081958.269,V,4054.924,N,07502.398,W,78.4,1.48,040416,,E*4A
$GPGGA,081959.269,4054.924,N,07502.398,W,0,00,,,M,,M,,*58
$GPGLL,4054.924,N,07502.398,W,082000.269,V*3E
$GPVTG,1.48,T,,M,78.4,N,145.2,K*64
$GPRMC,082002.269,V,4054.923,N,07502.397,W,89.7,1.50,040416,,E*43
$GPGGA,082003.269,4054.923,N,07502.397,W,0,00,,,M,,M,,*55
$GPGLL,4054.923,N,07502.397,W,082004.269,V*32
$GPVTG,1.50,T,,M,89.7,N,166.1,K*62
$GPRMC,082006.269,V,4054.921,N,07502.396,W,2.5,1.57,040416,,E*72
$GPGGA,082007.269,4054.921,N,07502.396,W,0,00,,,M,,M,,*52
$GPGLL,4054.921,N,07502.396,W,082008.269,V*3D
$GPVTG,1.57,T,,M,2.5,N,4.7,K*57
$GPRMC,082010.269,V,4054.920,N,07502.394,W,47.4,1.48,040416,,E*48
$GPGGA,082011.269,4054.920,N,07502.394,W,0,00,,,M,,M,,*56
$GPGLL,4054.920,N,07502.394,W,082012.269,V*35
$GPVTG,1.48,T,,M,47.4,N,87.8,K*5D
$GPRMC,082014.269,V,4054.919,N,07502.393,W,27.1,1.28,040416,,E*44
$GPGGA,082015.269,4054.919,N,07502.393,W,0,00,,,M,,M,,*5F
$GPGLL,4054.919,N,07502.393,W,082016.269,V*3C
$GPVTG,1.28,T,,M,27.1,N,50.2,K*58
$GPRMC,082018.269,V,4054.919,N,07502.391,W,55.5,1.28,040416,,E*4B
$GPGGA,082019.269,4054.919,N,07502.391,W,0,00,,,M,,M,,*51
$GPGLL,4054.919,N,07502.391,W,082020.269,V*3B
$GPVTG,1.28,T,,M,55.5,N,102.8,K*65
$GPRMC,082022.269,V,4054.918,N,07502.389,W,4.4,1.29,040416,,E*7E
$GPGGA,082023.269,4054.918,N,07502.389,W,0,00,,,M,,M,,*50
$GPGLL,4054.918,N,07502.389,W,082024.269,V*37
$GPVTG,1.29,T,,M,4.4,N,8.1,K*53
$GPRMC,082026.269,V,4054.917,N,07502.388,W,82.3,1.29,040416,,E*4D
$GPGGA,082027.269,4054.917,N,07502.388,W,0,00,,,M,,M,,*5A
$GPGLL,4054.917,N,07502.388,W,082028.269,V*35
$GPVTG,1.29,T,,M,82.3,N,152.4,K*61
$GPRMC,082030.269,V,4054.916,N,07502.386,W,5.9,1.28,040416,,E*71
$GPGGA,082031.269,4054.916,N,07502.386,W,0,00,,,M,,M,,*52
$GPGLL,4054.916,N,07502.386,W,082032.269,V*31
$GPVTG,1.28,T,,M,5.9,N,11.0,K*67
$GPRMC,082034.269,V,4054.915,N,07502.384,W,31.4,1.31,040416,,E*46
$GPGGA,082035.269,4054.915,N,07502.384,W,0,00,,,M,,M,,*57
$GPGLL,4054.915,N,07502.384,W,082036.269,V*34
$GPVTG,1.31,T,,M,31.4,N,58.2,K*5A
$GPRMC,082038.269,V,4054.915,N,07502.383,W,61.1,1.27,040416,,E*4A
$GPGGA,082039.269,4054.915,N,07502.383,W,0,00,,,M,,M,,*5C
$GPGLL,4054.915,N,07502.383,W,082040.269,V*32
$GPVTG,1.27,T,,M,61.1,N,113.1,K*60
$GPRMC,082042.269,V,4054.914,N,07502.381,W,38.8,1.33,040416,,E*44
$GPGGA,082043.269,4054.914,N,07502.381,W,0,00,,,M,,M,,*52
$GPGLL,4054.914,N,07502.381,W,082044.269,V*35
$GPVTG,1.33,T,,M,38.8,N,71.9,K*5D
$GPRMC,082046.269,V,4054.912,N,07502.381,W,88.1,1.82,040416,,E*4E
$GPGGA,082047.269,4054.912,N,07502.381,W,0,00,,,M,,M,,*50
$GPGLL,4054.912,N,07502.381,W,082048.269,V*3F
$GPVTG,1.82,T,,M,88.1,N,163.1,K*6F
$GPRMC,082050.269,V,4054.910,N,07502.380,W,74.0,1.76,040416,,E*43
